searchval,blk_no,road_name,building,address,postal,x,y,latitude,longitude,query,category
how sun drive,,how sun drive,nil,how sun drive,nil,33075.7768562649,36303.5221611005,1.34459023124875,103.8789274989,how sun drive,condo
fragrance court,12,yew siang road,fragrance court,12 yew siang road fragrance court singapore 117752,117752,23526.4587218808,28861.3061428014,1.27728558824322,103.793122156661,fragrance court,condo
the belmont,1a,belmont road,the belmont,1a belmont road the belmont singapore 269853,269853,24129.9649059754,32840.8244128935,1.31327502508264,103.798544391395,the belmont,condo
riversails,10,upper serangoon crescent,riversails,10 upper serangoon crescent riversails singapore 534031,534031,35768.6466897428,40076.8775331024,1.37871453246915,103.903125576064,riversails,condo
kensington park drive,,kensington park drive,nil,kensington park drive,nil,31897.0856292069,38881.4659964435,1.36790432910871,103.8683366038,kensington park drive,condo
the tembusu,107c,tampines road,the tembusu,107c tampines road the tembusu singapore 534007,534007,34311.2470572535,38185.1631773449,1.36160690195093,103.890029372368,the tembusu,condo
1 jalan aruan singapore 229098,1,jalan aruan,nil,1 jalan aruan singapore 229098,229098,29073.8955360036,32838.2642862946,1.31325209714281,103.842968064456,jalan aruan,condo
silat avenue,,silat avenue,nil,silat avenue,nil,27691.0933622061,28773.7945461776,1.27649447910994,103.830542939595,silat avenue,condo
tan kim cheng road,,tan kim cheng road,nil,tan kim cheng road,nil,25632.2988752661,33774.5937643517,1.32172074181357,103.812044320123,tan kim cheng road,condo
suites @ paya lebar,420,upper paya lebar road,suites @ paya lebar,420 upper paya lebar road suites @ paya lebar singapore 534049,534049,33220.7760515939,36945.5586983096,1.35039657607709,103.880230544693,suites @ paya lebar,condo
the axis,47,mandalay road,the axis,47 mandalay road the axis singapore 308227,308227,29851.7543867053,34095.4876073133,1.32462194319897,103.849957588255,the axis,condo
m5,5,jalan mutiara,m5,5 jalan mutiara m5 singapore 249185,249185,27503.7715456067,30893.7473724075,1.2956665859268,103.82885975081,m5,condo
parc stevens,25,stevens drive,parc stevens,25 stevens drive parc stevens singapore 257922,257922,27267.1397178471,33242.9532519244,1.3169119711607,103.826733455519,parc stevens,condo
mendon spring,198,pasir panjang road,mendon spring,198 pasir panjang road mendon spring singapore 117526,117526,22930.48478607,29014.2262014784,1.27866845329676,103.787767087156,mendon spring,condo
suites @ shrewsbury,84,shrewsbury road,suites @ shrewsbury,84 shrewsbury road suites @ shrewsbury singapore 307842,307842,29734.7367877187,33385.2702845633,1.31819899592367,103.848906082215,suites @ shrewsbury,condo
prospero ville,127,lorong k telok kurau,prospero ville,127 lorong k telok kurau prospero ville singapore 425766,425766,37028.6668632608,32919.3237325009,1.3139838637399,103.91444563651,prospero ville,condo
twin vew,93,west coast vale,twin vew,93 west coast vale twin vew singapore 126756,126756,19027.8715300793,33550.021341376,1.31968768006034,103.752699363733,twin vew,condo
eastwood green,10,eastwood road,eastwood green,10 eastwood road eastwood green singapore 486364,486364,41513.1721783178,33845.6166542806,1.32235926711929,103.954741499799,eastwood green,condo
21 rhu cross singapore 437438,21,rhu cross,nil,21 rhu cross singapore 437438,437438,31867.5358153917,30703.8062401656,1.29394858976016,103.868070044794,rhu cross,condo
idyllic east,576,upper east coast road,idyllic east,576 upper east coast road idyllic east singapore 466588,466588,40552.9230887368,33152.1039896011,1.3160878054443,103.946112888683,idyllic east,condo
central boulevard,,central boulevard,nil,central boulevard,nil,30655.100463311,28787.2506358307,1.27661641863168,103.857175083123,central boulevard,condo
old upper thomson road,,old upper thomson road,nil,old upper thomson road,nil,27371.8381663409,39120.8099982076,1.37007517956729,103.827677980584,upper thomson road,condo
27 jalan sendudok singapore 769459,27,jalan sendudok,nil,27 jalan sendudok singapore 769459,769459,27310.3594928682,47199.1678311508,1.44312698059643,103.827121479812,jalan sendudok,condo
joo chiat verbena,275,joo chiat place,joo chiat verbena,275 joo chiat place joo chiat verbena singapore 427955,427955,36189.992701903,33001.9600195866,1.31473143131445,103.906909758761,joo chiat verbena,condo
amber point,1,amber road,amber point,1 amber road amber point singapore 439845,439845,35256.6566927247,31247.0976304021,1.29886131925695,103.898522862752,amber point,condo
dover rise,,dover rise,nil,dover rise,nil,22605.501673082,31897.514804018,1.30474390810361,103.784846499322,dover rise,condo
edenz loft,11,lorong 24 geylang,edenz loft,11 lorong 24 geylang edenz loft singapore 398623,398623,33588.312217393,32735.0137467552,1.3123178474915,103.883532317959,edenz loft,condo
edelweiss park condominium,100,flora road,edelweiss park condominium,100 flora road edelweiss park condominium singapore 509743,509743,42958.912099191,37609.5579298381,1.35639824853602,103.96773406082,edelweiss park condominium,condo
38 dalvey road singapore 259512,38,dalvey road,nil,38 dalvey road singapore 259512,259512,26373.0892208992,33091.3431613147,1.3155408286545,103.818699963699,d' dalvey,condo
mar thoma mansions,28,mar thoma road,mar thoma mansions,28 mar thoma road mar thoma mansions singapore 328708,328708,31324.113122643,34459.3180335984,1.32791217152286,103.863187561929,mansions 28,condo
teo kim eng road,,teo kim eng road,nil,teo kim eng road,nil,36360.6993844229,34487.0646713714,1.32816257852966,103.908443327003,teo kim eng road,condo
one amber,1,amber gardens,one amber,1 amber gardens one amber singapore 439957,439957,35217.0175899081,31525.1992594358,1.30137638010264,103.898166752118,one amber,condo
regency park,15,nathan road,regency park,15 nathan road regency park singapore 248741,248741,27265.1337677622,30925.9992105812,1.29595825548386,103.82671548586,regency park,condo
crane road,,crane road,nil,crane road,nil,35311.2004684226,32756.953173169,1.31251589201217,103.899013307424,crane road,condo
oasis garden,51,jalan bunga rampai,oasis garden,51 jalan bunga rampai oasis garden singapore 538420,538420,33533.0546836387,35664.4017864019,1.33881019635958,103.883036330141,oasis garden,condo
draycott eight,10,draycott park,draycott eight,10 draycott park draycott eight singapore 259405,259405,27873.5127340192,32632.185596928,1.31138841261308,103.832182029022,draycott eight,condo
fernvale rivergrove,471c,fernvale street,fernvale rivergrove,471c fernvale street fernvale rivergrove singapore 793471,793471,33362.4116005814,41982.9510203358,1.39595291069106,103.8815041411,fernvale street,condo
zedge,2,akyab road,zedge,2 akyab road zedge singapore 309973,309973,29653.0414717104,33852.1973982286,1.32242172407521,103.848172032797,zedge,condo
parry court,35,parry avenue,parry court,35 parry avenue parry court singapore 547261,547261,33260.4311056379,38445.731138505,1.36396358971437,103.880587133601,parry court,condo
regent residences,1091,serangoon road,regent residences,1091 serangoon road regent residences singapore 328190,328190,31476.4118098821,34052.5411824528,1.32423340916268,103.864556003087,regent residences,condo
the foliage,370,pasir panjang road,the foliage,370 pasir panjang road the foliage singapore 118707,118707,21433.9191696178,30365.0710294489,1.2908847377725,103.774319608719,the foliage,condo
306a serangoon avenue 2 singapore 551306,306a,serangoon avenue 2,nil,306a serangoon avenue 2 singapore 551306,551306,31718.808205408,37382.8312997501,1.35435133753441,103.866734472157,serangoon avenue 2,condo
hillview residence,138,hillview avenue,hillview residence,138 hillview avenue hillview residence singapore 669599,669599,19922.3132407162,37555.1709032953,1.35590905178528,103.76073531599,hillview residence,condo
emerald hill road,,emerald hill road,nil,emerald hill road,nil,28698.2833549836,31815.2491652962,1.30400047956478,103.839592987726,emerald hill road,condo
fragrant gardens,357,upper paya lebar road,fragrant gardens,357 upper paya lebar road fragrant gardens singapore 534959,534959,33192.4127715565,36581.859150786,1.34710741271184,103.879975620168,fragrant gardens,condo
lorong 1 realty park (road),,lorong 1 realty park (road),nil,lorong 1 realty park (road),nil,34332.9669414155,38822.4988144001,1.36737131442731,103.890223540921,lorong 1 realty park,condo
5 meyer place singapore 437994,5,meyer place,nil,5 meyer place singapore 437994,437994,33906.8403708404,31272.6307026222,1.2990925168201,103.886394172271,meyer place,condo
one-north gateway,,one-north gateway,nil,one-north gateway,nil,23090.7197284051,31627.2217996982,1.3022955707661,103.789208241219,one-north gateway,condo
20 jalan rama rama singapore 329100,20,jalan rama rama,nil,20 jalan rama rama singapore 329100,329100,29793.6595018888,34377.2268728986,1.32716989679005,103.849435590944,jalan rama rama,condo
crystal heights,75,pasir panjang hill,crystal heights,75 pasir panjang hill crystal heights singapore 118885,118885,22701.5083670197,29333.9673443735,1.28156004152174,103.785709595421,crystal heights,condo
dairy farm heights,,dairy farm heights,nil,dairy farm heights,nil,21188.5175940718,38627.532007147,1.36560719087225,103.77211278179,dairy farm heights,condo
telok blangah market,82,telok blangah drive,telok blangah market,82 telok blangah drive telok blangah market singapore 100082,100082,25171.1488284729,28485.903418839,1.27389076775628,103.807900337544,telok blangah drive,condo
oxley garden,17,oxley garden,oxley garden,17 oxley garden oxley garden singapore 238748,238748,28985.0051570497,31177.3139464371,1.29823105071511,103.842169287766,oxley garden,condo
va residences,9,boon teck road,va residences,9 boon teck road va residences singapore 329583,329583,29820.8707824666,34328.2166812532,1.32672666436714,103.84968009627,va residences,condo
the morningside,1,jalan kuala,the morningside,1 jalan kuala the morningside singapore 239639,239639,28281.6290342482,30862.7646707911,1.29538639198638,103.835849138309,the morningside,condo
draycott park (road),,draycott park (road),nil,draycott park (road),nil,27725.4187193844,32609.4038393793,1.31118326203664,103.830851088307,draycott park,condo
14 cove way singapore 098273,14,cove way,nil,14 cove way singapore 098273,098273,28614.7518646205,24931.7774455063,1.24174861334108,103.838842278019,cove way,condo
15 lorong 30 geylang singapore 398349,15,lorong 30 geylang,nil,15 lorong 30 geylang singapore 398349,398349,33915.1913075484,32830.776077928,1.31318382679314,103.886469505104,lorong 30 geylang,condo
sunny palms,65,lorong g telok kurau,sunny palms,65 lorong g telok kurau sunny palms singapore 426323,426323,36627.1610906757,33300.959300207,1.3174353531319,103.910838016448,sunny palms,condo
10b lengkong tiga singapore 417415,10b,lengkong tiga,nil,10b lengkong tiga singapore 417415,417415,36830.8055379884,34021.1550388802,1.32394848458334,103.912668070911,lengkong tiga,condo
the lanai,142,hillview avenue,the lanai,142 hillview avenue the lanai singapore 669629,669629,20026.2398459408,37560.3419764377,1.35595584509131,103.761669162181,the lanai,condo
the daffodil,568,upper east coast road,the daffodil,568 upper east coast road the daffodil singapore 466584,466584,40504.2561360253,33144.7861597128,1.31602164556244,103.94567558931,the daffodil,condo
alba,8,cairnhill rise,alba,8 cairnhill rise alba singapore 229743,229743,28712.1192767015,32192.8659112118,1.30741535240087,103.83971731014,alba,condo
balmeg hill,,balmeg hill,nil,balmeg hill,nil,22402.5153977952,29454.2071168266,1.28264736511971,103.783023154032,balmeg hill,condo
park place residences at plq,2,paya lebar road,park place residences at plq,2 paya lebar road park place residences at plq singapore 409053,409053,34613.7707721666,33124.1389756929,1.31583675363618,103.892746648427,park place residences at plq,condo
11a lorong 108 changi singapore 426404,11a,lorong 108 changi,nil,11a lorong 108 changi singapore 426404,426404,35956.3636094676,33189.2478603739,1.31642525645375,103.904810533859,lorong 108 changi,condo
holiday inn express & suites singapore novena,201,balestier road,holiday inn express & suites singapore novena,201 balestier road holiday inn express & suites singapore novena singapore 329926,329926,30136.8994058184,33590.154780902,1.32005187342709,103.852519734445,novena suites,condo
cascata,7,teo kim eng road,cascata,7 teo kim eng road cascata singapore 416378,416378,36378.7611919185,34513.5921605621,1.32840203522441,103.90860634862,cascata,condo
the regalia,2,river valley close,the regalia,2 river valley close the regalia singapore 238428,238428,28400.9789932556,30842.4709865507,1.29520286174263,103.836921549212,the regalia,condo
serenity breeze,98,lorong j telok kurau,serenity breeze,98 lorong j telok kurau serenity breeze singapore 425927,425927,36779.1625463143,32877.0774061028,1.31360187547893,103.91220370573,serenity breeze,condo
hong heng garden,33,sembawang road,hong heng garden,33 sembawang road hong heng garden singapore 779084,779084,26240.7183385119,42873.8360915463,1.40401019766297,103.817509968397,hong heng garden,condo
zyanya (u/c),8,lorong 25a geylang,zyanya (u/c),8 lorong 25a geylang zyanya (u/c) singapore 388222,388222,33559.6078777146,32907.9439997338,1.31388177226647,103.883274426427,zyanya,condo
marine view mansions,97,marine parade,marine view mansions,97 marine parade marine view mansions singapore 449273,449273,36029.3490407495,31791.1090959702,1.30378097367831,103.905465982943,marine view mansions,condo
the nclave,81,lorong n telok kurau,the nclave,81 lorong n telok kurau the nclave singapore 425231,425231,37102.4630830223,32557.9682284407,1.3107158736674,103.91510862562,the nclave,condo
riviera residences,13,riviera drive,riviera residences,13 riviera drive riviera residences singapore 467204,467204,40128.9234219082,33133.4547649175,1.31591931917753,103.942303036419,riviera residences,condo
gaia,91,nanyang avenue,gaia,91 nanyang avenue gaia singapore 639956,639956,11305.8867253941,36018.976414606,1.34201272078881,103.683312109507,gaia,condo
signature residence,11,green lane,signature residence,11 green lane signature residence singapore 438916,438916,34576.9039745145,32597.1573068742,1.31107092788673,103.892415269833,signature residence,condo
rivervale crest,9,rivervale crescent,rivervale crest,9 rivervale crescent rivervale crest singapore 545086,545086,35894.2805848494,41518.4788822941,1.39175181491889,103.904254875951,rivervale crescent,condo
sarhad ville,55a,lorong sarhad,sarhad ville,55a lorong sarhad sarhad ville singapore 119166,119166,23015.8539996734,29220.8940874171,1.28053749822744,103.788534128918,sarhad ville,condo
upper bukit timah road,,upper bukit timah road,nil,upper bukit timah road,nil,20673.7402719576,37836.5353907067,1.35845380457902,103.767487304038,upper bukit timah road,condo
nomu,20,handy road,nomu,20 handy road nomu singapore 229236,229236,29518.4854830438,31351.8169843871,1.2998091733077,103.846962853661,nomu,condo
thomson grand,43,sin ming walk,thomson grand,43 sin ming walk thomson grand singapore 573926,573926,27475.3650428876,38652.0983422939,1.36583036322451,103.828604372407,thomson grand,condo
waterview,83,tampines avenue 1,waterview,83 tampines avenue 1 waterview singapore 528686,528686,38288.5083043352,36769.606974123,1.34880402007706,103.925767225328,waterview,condo
wan tho lodge,25j,wan tho avenue,wan tho lodge,25j wan tho avenue wan tho lodge singapore 347554,347554,32216.1657510577,35045.5171359442,1.33321343691728,103.871203224731,wan tho lodge,condo
kew green,41,kew crescent,kew green,41 kew crescent kew green singapore 466204,466204,41036.8480966967,33422.0186133273,1.31852861115375,103.950461305573,kew green,condo
k suites,21,lorong k telok kurau,k suites,21 lorong k telok kurau k suites singapore 425617,425617,36298.9955809442,32765.7001248114,1.31259475279896,103.907889140249,k suites,condo
seascape,55,cove way,seascape,55 cove way seascape singapore 098307,098307,28440.5604052953,24714.6450398248,1.23978494620582,103.83727712151,seascape,condo
guillemard suites,213,guillemard road,guillemard suites,213 guillemard road guillemard suites singapore 399733,399733,33498.0340816546,32583.2336408813,1.31094521852726,103.882721097721,suites @ guillemard,condo
public mansions,432,balestier road,public mansions,432 balestier road public mansions singapore 329813,329813,29707.3310050778,34292.4267881941,1.32640299982338,103.848659877472,public mansion,condo
euro-asia lodge,96,joo chiat terrace,euro-asia lodge,96 joo chiat terrace euro-asia lodge singapore 427253,427253,35644.6450561937,32956.2041507456,1.31431777216437,103.90200952862,euro-asia lodge,condo
isuites @ palm,26,glasgow road,isuites @ palm,26 glasgow road isuites @ palm singapore 549345,549345,33057.7094686115,38117.9272706434,1.36099908465504,103.878765486537,isuites @ palm,condo
the jovell,11,flora drive,the jovell,11 flora drive the jovell singapore 506852,506852,42718.4138694601,37812.12665301,1.35823032280321,103.965573132382,the jovell,condo
orchid mansion,11,amber road,orchid mansion,11 amber road orchid mansion singapore 439857,439857,35356.1594202528,31268.3998438586,1.29905394548315,103.899416943562,11 amber road,condo
bartley ridge,46,mount vernon road,bartley ridge,46 mount vernon road bartley ridge singapore 368063,368063,33357.3499159319,35916.6283755358,1.3410912750043,103.88145756434,bartley ridge,condo
duchess manor,20,duchess road,duchess manor,20 duchess road duchess manor singapore 268988,268988,25077.3533108821,34088.670076929,1.32456020379876,103.807057027769,duchess manor,condo
simei street 4,,simei street 4,nil,simei street 4,nil,41666.0194499099,36000.5433106088,1.34185040635726,103.956113471357,simei street 4,condo
yishun close,,yishun close,nil,yishun close,nil,29281.1795418849,46249.3807944721,1.4345374303698,103.844831194221,yishun close,condo
hyll on holland,87,holland road,hyll on holland,87 holland road hyll on holland singapore 275749,275749,24558.1888936833,32533.5691764988,1.31049636845377,103.802392230378,hyll on holland,condo
birchwood mansions,3,jalan ampas,birchwood mansions,3 jalan ampas birchwood mansions singapore 329504,329504,29949.8989595361,34241.9921549652,1.32594687231998,103.850839479307,birchwood mansions,condo
marina collection,13,cove drive,marina collection,13 cove drive marina collection singapore 098327,098327,28650.6285057208,25067.3016464375,1.24297424636053,103.839164641252,marina collection,condo
the waterline,161,poh huat road west,the waterline,161 poh huat road west the waterline singapore 546692,546692,32805.7261735303,38812.1129742097,1.36727709259952,103.876501360155,the waterline,condo
ji xiang court,169,telok kurau road,ji xiang court,169 telok kurau road ji xiang court singapore 423822,423822,36606.3586924337,32873.4910132494,1.31356949026847,103.910650977421,ji xiang court,condo
morimasa gardens,11,gilstead road,morimasa gardens,11 gilstead road morimasa gardens singapore 309065,309065,28585.5226478362,33151.9987780899,1.31608941426119,103.838579797187,morimasa gardens,condo
upper serangoon road,,upper serangoon road,nil,upper serangoon road,nil,33483.2119332943,37764.9113534512,1.35778430325026,103.882565934846,upper serangoon road,condo
the beccagayle,15,lorong n telok kurau,the beccagayle,15 lorong n telok kurau the beccagayle singapore 425142,425142,36471.9583720071,32438.9348725434,1.30963955864522,103.909443205926,the beccagayle,condo
mint residences @ jansen,20,jansen road,mint residences @ jansen,20 jansen road mint residences @ jansen singapore 548411,548411,32908.3196254121,37992.7838076763,1.35986735718564,103.877423098448,residences @ jansen,condo
vivace,19,tong watt road,vivace,19 tong watt road vivace singapore 238011,238011,28821.7168610869,30592.79635166,1.29294488391215,103.840702054687,vivace,condo
faber crest,50j,faber heights,faber crest,50j faber heights faber crest singapore 129203,129203,19694.0907366052,33905.7675221581,1.32290510804328,103.758685588343,faber crest,condo
2 lew lian vale singapore 537014,2,lew lian vale,nil,2 lew lian vale singapore 537014,537014,32940.4075321872,36845.1945439633,1.34948896622805,103.877711240773,lew lian vale,condo
jalan kayu estate,250,jalan kayu,jalan kayu estate,250 jalan kayu jalan kayu estate singapore 799475,799475,32454.3152760565,42204.1351285856,1.3979533737844,103.873344203729,jalan kayu estate,condo
kartar apartments,43a,thomson road,kartar apartments,43a thomson road kartar apartments singapore 307583,307583,29282.6007901942,33022.96009803,1.31492241285227,103.844843392551,advance apartments,condo
affluence court,8,ah soo garden,affluence court,8 ah soo garden affluence court singapore 539960,539960,33535.92372528,36918.2920575887,1.35014992973273,103.88306233961,affluence court,condo
de paradiso,20,martaban road,de paradiso,20 martaban road de paradiso singapore 328644,328644,29926.50680234,34035.8825014494,1.32408289110494,103.85062927516,de paradiso,condo
sunglade,1,serangoon avenue 2,sunglade,1 serangoon avenue 2 sunglade singapore 556130,556130,32267.9062964441,36711.4483146649,1.34827951654326,103.871668377219,sunglade,condo
lewis road,,lewis road,nil,lewis road,nil,26819.604069054,33600.9729134263,1.32014976000227,103.822712105555,lewis road,condo
filling station at old toh tuck road,50,old toh tuck road,filling station at old toh tuck road,50 old toh tuck road filling station at old toh tuck road singapore 597657,597657,19711.933410327,35153.8073553089,1.33419193367473,103.758845576093,toh tuck road,condo
sunset way,,sunset way,nil,sunset way,nil,20599.6517886196,34456.7835589766,1.32788175789822,103.766813263949,sunset way,condo
saint martin's,1,saint martin's drive,saint martin's,1 saint martin's drive saint martin's singapore 257988,257988,27014.5470979856,32004.2643491272,1.30570969876777,103.82446382138,st martin's,condo
ceylon lane,,ceylon lane,nil,ceylon lane,nil,35438.3055312186,32579.4662046045,1.3109107527057,103.900155393422,ceylon lane,condo
bukit batok east avenue 2,,bukit batok east avenue 2,nil,bukit batok east avenue 2,nil,19471.585883878,37050.2718007129,1.35134266244518,103.756683680517,bukit batok east avenue 2,condo
lincoln road,,lincoln road,nil,lincoln road,nil,29056.6495820457,33040.9471992728,1.31508479331837,103.842813069518,lincoln road,condo
the levelz,38,farrer road,the levelz,38 farrer road the levelz singapore 268836,268836,24848.0495435884,32869.2673885319,1.31353233527505,103.804996735084,the levelz,condo
the hillshore (u/c),290,pasir panjang road,the hillshore (u/c),290 pasir panjang road the hillshore (u/c) singapore 119476,119476,22082.6820732346,29906.8818286657,1.28674116675747,103.780149097748,the hillshore,condo
bagnall haus (u/c),815,upper east coast road,bagnall haus (u/c),815 upper east coast road bagnall haus (u/c) singapore 466610,466610,41523.3756972365,33615.2069553975,1.32027552345902,103.954833082378,bagnall court,condo
cairnhill methodist church,16,winstedt road,cairnhill methodist church,16 winstedt road cairnhill methodist church singapore 227988,227988,28949.8458368964,32368.4710064493,1.30900345657234,103.84185340188,cairnhill 16,condo
chancery esquire,8,chancery lane,chancery esquire,8 chancery lane chancery esquire singapore 309494,309494,28357.9610754177,33325.0717748795,1.31765462879831,103.836535043005,chancery esquire,condo
fifty-two stevens,52,stevens road,fifty-two stevens,52 stevens road fifty-two stevens singapore 257848,257848,27248.9829532579,33034.227203628,1.31502432605995,103.826570312809,fifty-two stevens,condo
the jtc summit,8,jurong town hall road,the jtc summit,8 jurong town hall road the jtc summit singapore 609434,609434,17823.0620960118,34824.6963040344,1.33121499776718,103.741873113544,the summit,condo
ritz regency,8,ipoh lane,ritz regency,8 ipoh lane ritz regency singapore 438611,438611,34838.6027475456,32630.0201043002,1.31136807031033,103.89476676733,ritz regency,condo
balmoral road,,balmoral road,nil,balmoral road,nil,27650.8432115718,32837.3066058314,1.31324355521211,103.830181342875,balmoral road,condo
villa chancerita,16,chancery hill road,villa chancerita,16 chancery hill road villa chancerita singapore 309657,309657,28556.0668146582,34196.6291342843,1.32553668245596,103.838315140395,villa chancerita,condo
breezy mansions,15,sandilands road,breezy mansions,15 sandilands road breezy mansions singapore 546079,546079,32974.1522781216,38255.3060817402,1.36224150337995,103.878014692236,breezy mansions,condo
chapel court,27,sea avenue,chapel court,27 sea avenue chapel court singapore 424247,424247,36247.5390703175,31980.0217826609,1.30548937473146,103.907426569866,chapel court,condo
verdor residence,142,joo chiat terrace,verdor residence,142 joo chiat terrace verdor residence singapore 427286,427286,35822.1947483122,32991.281868415,1.3146349577614,103.903604909248,verdor residences,condo
woodleigh close,,woodleigh close,nil,woodleigh close,nil,31987.1164834498,35313.1506766814,1.33563399451561,103.869144076835,woodleigh close,condo
8 hullet,8,hullet road,8 hullet,8 hullet road 8 hullet singapore 229160,229160,28600.9422786571,31705.8484536242,1.3030109404897,103.838718322482,8 hullet,condo
landbay condominium,5,jalan hajijah,landbay condominium,5 jalan hajijah landbay condominium singapore 468700,468700,39433.2529224018,32892.9568075966,1.31374461098387,103.936052006289,landbay condominium,condo
viz at holland,221,queensway,viz at holland,221 queensway viz at holland singapore 276750,276750,24506.6816539159,32306.2870381046,1.30844090346115,103.801929438373,viz at holland,condo
the treeline,112,lorong g telok kurau,the treeline,112 lorong g telok kurau the treeline singapore 426315,426315,36954.218610594,33320.1282867081,1.31760861676838,103.913776798528,the treeline,condo
luma,6,river valley grove,luma,6 river valley grove luma singapore 238403,238403,28142.2919148728,31018.9754646569,1.29679910840731,103.83459713454,luma,condo
seaview point,15,amber road,seaview point,15 amber road seaview point singapore 439865,439865,35400.7329611145,31321.1384154707,1.29953088366934,103.899817468941,seaview point,condo
sing lian building,386,changi road,sing lian building,386 changi road sing lian building singapore 419835,419835,36642.8114543362,33402.2572218496,1.31835145049718,103.910978671222,sing lian building,condo
the park vale,4b,park vale,the park vale,4b park vale the park vale singapore 288564,288564,25585.5274837287,34689.632206725,1.32999513668172,103.811623198198,the park vale,condo
the coterie @ holland,72,holland road,the coterie @ holland,72 holland road the coterie @ holland singapore 258870,258870,24808.6004329063,32579.5354078263,1.3109120977357,103.804642295068,the coterie @ holland,condo
east 25 apartments,10,lorong 25a geylang,east 25 apartments,10 lorong 25a geylang east 25 apartments singapore 388224,388224,33558.8471524799,32946.1242765393,1.3142270612182,103.88326759779,east 25 apartments,condo
shell commonwealth/stirling road,355,commonwealth avenue,shell commonwealth/stirling road,355 commonwealth avenue shell commonwealth/stirling road singapore 149731,149731,24662.7778229276,31098.7348101586,1.29752024517663,103.80333216638,stirling road,condo
wan tho lodge,25c,wan tho avenue,wan tho lodge,25c wan tho avenue wan tho lodge singapore 347554,347554,32197.258824761,35041.7502248343,1.33317937293918,103.871033334759,wan tho avenue,condo
sky eden@bedok (u/c),1,bedok central,sky eden@bedok (u/c),1 bedok central sky eden@bedok (u/c) singapore 469657,469657,39023.0755238216,34131.4748778939,1.3249454636451,103.932366806338,sky eden@bedok,condo
pine court,28,lorong l telok kurau,pine court,28 lorong l telok kurau pine court singapore 425440,425440,36476.2967123808,32618.7362605073,1.31126561633996,103.909482237087,pine court,condo
13 lorong 13 geylang singapore 388651,13,lorong 13 geylang,nil,13 lorong 13 geylang singapore 388651,388651,32906.3228162583,32820.3287806679,1.31308952252541,103.877404321963,lorong 13 geylang,condo
leonie parc view,22,leonie hill road,leonie parc view,22 leonie hill road leonie parc view singapore 239195,239195,28105.7109983275,31260.5677306596,1.29898398400724,103.834268439755,leonie parc view,condo
varsity park condominium,30,west coast road,varsity park condominium,30 west coast road varsity park condominium singapore 127450,127450,20748.9298178125,30791.9607438985,1.29474522456387,103.768164598257,varsity park condominium,condo
greenlane apartment,3d,green lane,greenlane apartment,3d green lane greenlane apartment singapore 438898,438898,34662.9451978924,32587.2866147049,1.3109816423988,103.893188389798,greenlane apartment,condo
highline residences,11,kim tian road,highline residences,11 kim tian road highline residences singapore 168594,168594,27610.2710505184,29622.0471471883,1.28416577731538,103.829816710958,highline residences,condo
hillview heights,29a,hillview avenue,hillview heights,29a hillview avenue hillview heights singapore 669562,669562,20460.8547368031,38120.0453938767,1.36101771299356,103.765574316514,hillview heights,condo
euphony gardens,5,jalan mata ayer,euphony gardens,5 jalan mata ayer euphony gardens singapore 759151,759151,27063.0340772653,45152.9228270352,1.42462147471379,103.82489908534,euphony gardens,condo
the lenox,398,changi road,the lenox,398 changi road the lenox singapore 419845,419845,36678.3863539062,33422.1337224692,1.31853119632694,103.911298335327,the lenox,condo
bartley road,,bartley road,nil,bartley road,nil,33044.6431950082,36174.5475957022,1.34342036064538,103.87865319723,bartley road,condo
ah hood road,,ah hood road,nil,ah hood road,nil,29506.5309455593,34437.90693839,1.32771861428245,103.846855352744,ah hood road,condo
east elegance,190,joo chiat terrace,east elegance,190 joo chiat terrace east elegance singapore 427336,427336,36042.1013963092,33023.7216404993,1.31492827462524,103.905580887804,east elegance,condo
mount sinai,62,mount sinai drive,mount sinai,62 mount sinai drive mount sinai singapore 277115,277115,22175.1135641392,33290.8870838024,1.3173449231304,103.780979000295,mount sinai drive,condo
equatorial apartments,50,meyer road,equatorial apartments,50 meyer road equatorial apartments singapore 437873,437873,34084.4802918192,31164.5391017664,1.29811494062684,103.887990324645,equatorial apartments,condo
fontana heights,39,mount sinai rise,fontana heights,39 mount sinai rise fontana heights singapore 276957,276957,21725.8955213167,33072.4706799835,1.31536955463919,103.776942592447,fontana heights,condo
kandis residence,8,kandis link,kandis residence,8 kandis link kandis residence singapore 756970,756970,28407.6762386728,48623.5904651117,1.45600894690582,103.836981971114,kandis link,condo
ventana,93,pasir panjang hill,ventana,93 pasir panjang hill ventana singapore 118902,118902,22601.8424042556,29464.3407819793,1.28273907583061,103.784814036453,ventana,condo
sunshine mansions,289,joo chiat place,sunshine mansions,289 joo chiat place sunshine mansions singapore 427970,427970,36288.1925743399,33019.6026522033,1.31489095859612,103.907792137947,sunshine mansions,condo
latitude,31,jalan mutiara,latitude,31 jalan mutiara latitude singapore 249206,249206,27469.7283573514,30933.9108983092,1.29602981016717,103.82855385728,latitude,condo
wilkie 48,48,wilkie road,wilkie 48,48 wilkie road wilkie 48 singapore 228059,228059,29674.8874494946,31651.6812634468,1.30252103215856,103.848368211637,wilkie 48,condo
echelon,9,alexandra view,echelon,9 alexandra view echelon singapore 158742,158742,26280.3625868848,30334.2832233794,1.29060694545576,103.817866920135,echelon,condo
thomson lane,,thomson lane,nil,thomson lane,nil,28773.1932295724,34727.549020721,1.33033787813249,103.840265901546,thomson lane,condo
the montana,8,jalan mutiara,the montana,8 jalan mutiara the montana singapore 249188,249188,27528.8898253776,30955.1708273925,1.29622207844163,103.82908544855,the montana,condo
avon park,1,youngberg terrace,avon park,1 youngberg terrace avon park singapore 357741,357741,32056.6596515365,35712.5212820917,1.33924560642212,103.869770060845,avon park,condo
rochelle at newton,188,keng lee road,rochelle at newton,188 keng lee road rochelle at newton singapore 308414,308414,28957.5795186115,32925.8568043746,1.31404425678498,103.841922909924,rochelle at newton,condo
horizon towers,15,leonie hill road,horizon towers,15 leonie hill road horizon towers singapore 239194,239194,28006.5738172391,31183.9053749833,1.29829067681172,103.833377647901,horizon towers,condo
sea esta,30,pasir ris link,sea esta,30 pasir ris link sea esta singapore 518147,518147,42033.6049451055,39942.9226968605,1.37750076552963,103.959420693377,sea esta,condo
the horizon,1,holt road,the horizon,1 holt road the horizon singapore 249441,249441,27269.8910170309,30766.0726887658,1.29451193637718,103.826758235545,the horizon,condo
the canopy,77,yishun avenue 11,the canopy,77 yishun avenue 11 the canopy singapore 768861,768861,29639.7904813876,45169.3534387816,1.42477003544273,103.848053591909,the clement canopy,condo
27 jalan limbok singapore 548714,27,jalan limbok,nil,27 jalan limbok singapore 548714,548714,32633.0428467616,38592.8767620511,1.36529442663066,103.87494964691,jalan limbok,condo
daisy road,,daisy road,nil,daisy road,nil,31802.5985183383,36248.6089871194,1.34409382685536,103.867487235831,daisy road,condo
blu coral,127,lorong l telok kurau,blu coral,127 lorong l telok kurau blu coral singapore 425562,425562,37025.7409480792,32776.5713251829,1.31269286351102,103.91441930412,blu coral,condo
rezi 35,20,lorong 35 geylang,rezi 35,20 lorong 35 geylang rezi 35 singapore 387949,387949,34178.6793724364,33111.3526594546,1.31572120937619,103.888837131268,rezi 35,condo
pine grove,1d,pine grove,pine grove,1d pine grove pine grove singapore 593001,593001,21447.4986281004,33330.4191590268,1.31770229019936,103.774441002367,pine grove,condo
primedge,45,lorong 34 geylang,primedge,45 lorong 34 geylang primedge singapore 398236,398236,34101.0963252326,32758.6268904991,1.31253129900962,103.888139939124,primedge,condo
honolulu tower,341,bukit timah road,honolulu tower,341 bukit timah road honolulu tower singapore 259719,259719,27750.4877272332,33373.29393957,1.31809073406194,103.831076582966,honolulu tower,condo
the aberdeen,2,jalan taman,the aberdeen,2 jalan taman the aberdeen singapore 329023,329023,31581.2551415293,34196.357146183,1.32553401753237,103.86549809331,the aberdeen,condo
sommerville estate road,,sommerville estate road,nil,sommerville estate road,nil,25001.5313911764,32527.4428003877,1.31044101002298,103.806375878889,sommerville estate road,condo
gideon's lodge,47,joo chiat lane,gideon's lodge,47 joo chiat lane gideon's lodge singapore 428105,428105,35815.9916579975,32799.9109371584,1.31290426949308,103.903549123093,gideon's lodge,condo
four seasons park,10,cuscaden walk,four seasons park,10 cuscaden walk four seasons park singapore 249693,249693,27370.9447668483,31724.514023019,1.30317974470181,103.827666227705,four seasons park,condo
ola residences,839,mountbatten road,ola residences,839 mountbatten road ola residences singapore 437831,437831,35288.9404333532,31708.7522126418,1.30303635048621,103.898813054006,ola residences,condo
2 opal crescent singapore 328397,2,opal crescent,nil,2 opal crescent singapore 328397,328397,31805.0130575057,34437.9647277854,1.32771900350227,103.867508708943,opal crescent,condo
british council (napier road centre),30,napier road,british council (napier road centre),30 napier road british council (napier road centre) singapore 258509,258509,26680.6093626879,31933.5037357211,1.30506975227221,103.821463236807,napier road,condo
monarchy apartments,51,mandalay road,monarchy apartments,51 mandalay road monarchy apartments singapore 308231,308231,29870.5976897003,34114.3243118878,1.32479229453516,103.85012690661,monarchy apartments,condo
vibes @ east coast,308,telok kurau road,vibes @ east coast,308 telok kurau road vibes @ east coast singapore 423858,423858,36725.3578455104,32421.6050292701,1.30948276318529,103.911720115974,vibes @ east coast,condo
the quayside,60,robertson quay,the quayside,60 robertson quay the quayside singapore 238252,238252,28654.4650634611,30276.3873202894,1.29008339576408,103.839199219609,the quayside,condo
midwood,10,hillview rise,midwood,10 hillview rise midwood singapore 667972,667972,20249.0467721373,38461.5105951168,1.36410574565492,103.763670992519,midwood,condo
seaside park,584,east coast road,seaside park,584 east coast road seaside park singapore 458992,458992,37633.3281341502,32560.3556156568,1.31073730302078,103.919878702817,seaside park,condo
floridian,971,bukit timah road,floridian,971 bukit timah road floridian singapore 589647,589647,22600.5721477829,35038.6880431902,1.33315148879487,103.78480165429,floridian,condo
the sterling,1003,bukit timah road,the sterling,1003 bukit timah road the sterling singapore 596289,596289,22271.1245770659,35267.4085161686,1.33521989433288,103.7818413386,the sterling,condo
the medley,66,lorong g telok kurau,the medley,66 lorong g telok kurau the medley singapore 426248,426248,36659.395312883,33271.8988576997,1.31717253191527,103.911127649026,the medley,condo
the sanctuary @ geylang,1,lorong 30 geylang,the sanctuary @ geylang,1 lorong 30 geylang the sanctuary @ geylang singapore 398342,398342,33914.9472870631,32860.9923639279,1.31345709214795,103.886467318231,the sanctuary @ geylang,condo
154 hougang street 11 singapore 530154,154,hougang street 11,nil,154 hougang street 11 singapore 530154,530154,33214.3894767612,37145.2985454537,1.3522029527063,103.880173191904,hougang street 11,condo
botanique at bartley,233,upper paya lebar road,botanique at bartley,233 upper paya lebar road botanique at bartley singapore 533869,533869,33488.42917265,36014.1208851933,1.34197293873428,103.882635407026,botanique at bartley,condo
holt road,,holt road,nil,holt road,nil,27167.1137270312,30735.031677419,1.29423111118019,103.825834609771,seven holt road,condo
upper serangoon shopping centre,756,upper serangoon road,upper serangoon shopping centre,756 upper serangoon road upper serangoon shopping centre singapore 534626,534626,33064.697135333,37286.5960918665,1.35348082277147,103.878828134896,upper serangoon shopping centre,condo
familie mansions,65,lorong 8 geylang,familie mansions,65 lorong 8 geylang familie mansions singapore 399125,399125,32917.3350351667,32460.6476409305,1.30983669240885,103.877503215165,familie mansions,condo
kim seng road,,kim seng road,nil,kim seng road,nil,27990.1759987151,30568.6638942514,1.2927264240571,103.833230428048,kim seng road,condo
87 geylang east avenue 2 singapore 389753,87,geylang east avenue 2,nil,87 geylang east avenue 2 singapore 389753,389753,34172.1258696737,33360.3129699305,1.31797271874983,103.888778294506,geylang east avenue 2,condo
reflections at keppel bay,17,keppel bay view,reflections at keppel bay,17 keppel bay view reflections at keppel bay singapore 098411,098411,25494.2172097452,27641.9423184972,1.26625830660217,103.810803288694,reflections at keppel bay,condo
toa payoh vista,55,lorong 5 toa payoh,toa payoh vista,55 lorong 5 toa payoh toa payoh vista singapore 310055,310055,29989.7665553615,35503.9726344477,1.33735977355321,103.851197793444,lorong 5 toa payoh,condo
new futura,18,leonie hill road,new futura,18 leonie hill road new futura singapore 239199,239199,28083.2312997691,31165.5243851729,1.29812444550056,103.834066449377,new futura,condo
east bay gardens,87,lorong g telok kurau,east bay gardens,87 lorong g telok kurau east bay gardens singapore 426277,426277,36777.5497168014,33379.983829869,1.31814997971255,103.912189356489,east bay gardens,condo
the rochester,31,rochester drive,the rochester,31 rochester drive the rochester singapore 138637,138637,22995.1179488525,31964.6678030957,1.30535121238071,103.788347370864,rochester drive,condo
claymore road,,claymore road,nil,claymore road,nil,27651.2055801392,32222.83105868,1.30768595251898,103.830185347453,claymore road,condo
beverly hill,61,grange road,beverly hill,61 grange road beverly hill singapore 249570,249570,27137.2322861189,31207.5858347248,1.29850482255037,103.825566227543,beverly hill,condo
rising court,441,joo chiat road,rising court,441 joo chiat road rising court singapore 427654,427654,35914.1380166393,32160.3777708896,1.30712053650072,103.904430853105,rising court,condo
the hillford,174,jalan jurong kechil,the hillford,174 jalan jurong kechil the hillford singapore 596183,596183,20877.3516969001,36302.6251964793,1.34458172465993,103.769317249406,the hillford,condo
terrasse,37,terrasse lane,terrasse,37 terrasse lane terrasse singapore 544782,544782,32853.4541528514,38961.5912907254,1.36862891294021,103.876930253453,terrasse,condo
marymount terrace,,marymount terrace,nil,marymount terrace,nil,28763.0997308836,36890.2717924374,1.34989702815562,103.84017551079,marymount terrace,condo
signature park,52a,toh tuck road,signature park,52a toh tuck road signature park singapore 596744,596744,20926.2769263163,36042.2763755228,1.34222723540446,103.769756933042,signature park,condo
heritage view,10,dover rise,heritage view,10 dover rise heritage view singapore 138680,138680,22542.3020113409,31861.3451349512,1.30441672235897,103.784278626735,heritage view,condo
bleu @ east coast,562,upper east coast road,bleu @ east coast,562 upper east coast road bleu @ east coast singapore 466581,466581,40450.1638288405,33117.5034164265,1.31577493252134,103.945189532444,bleu @ east coast,condo
sommerville loft,7,sommerville walk,sommerville loft,7 sommerville walk sommerville loft singapore 358178,358178,32058.8521734728,36201.702749176,1.34366958875438,103.869789827423,sommerville walk,condo
euhabitat,214,jalan eunos,euhabitat,214 jalan eunos euhabitat singapore 419551,419551,36276.9469892774,34423.1998539884,1.32758458776964,103.907691468201,euhabitat,condo
tanah merah kechil road,,tanah merah kechil road,nil,tanah merah kechil road,nil,40290.2693546644,34483.6744525931,1.32813009986287,103.943753344958,tanah merah kechil road,condo
hwa chong institution,661,bukit timah road,hwa chong institution,661 bukit timah road hwa chong institution singapore 269734,269734,24926.8156149359,34131.5293299966,1.3249477928719,103.805704361472,institution ville,condo
le reve,25,kampong eunos,le reve,25 kampong eunos le reve singapore 417782,417782,36106.5061568869,33439.709462842,1.3186903015874,103.906159705703,le reve,condo
jui residences,1177,serangoon road,jui residences,1177 serangoon road jui residences singapore 328231,328231,31652.9893548992,34277.5963236764,1.32626870727644,103.866142673614,jui residences,condo
lakeville,9,jurong lake link,lakeville,9 jurong lake link lakeville singapore 648164,648164,16053.4099527476,36364.191758493,1.34513697879955,103.725971213636,lakeville,condo
kovan regency,20,kovan rise,kovan regency,20 kovan rise kovan regency singapore 544718,544718,33755.2666320801,38411.8403495476,1.36365700164603,103.885033559983,kovan regency,condo
the taipan,25,jalan hajijah,the taipan,25 jalan hajijah the taipan singapore 468721,468721,39308.153348011,32734.0453528836,1.31230752039196,103.934927867972,the taipan,condo
nicole green,68,guillemard road,nicole green,68 guillemard road nicole green singapore 399710,399710,33178.6227084426,32401.814671332,1.30930458520869,103.879851001095,nicole green,condo
parc esta,904,sims avenue,parc esta,904 sims avenue parc esta singapore 408968,408968,35862.5024406211,33348.4689868297,1.31786521916555,103.903967184717,parc esta,condo
chwee chian road,,chwee chian road,nil,chwee chian road,nil,23083.9951915005,29070.9556067456,1.27918151826735,103.789146426568,chwee chian road,condo
2 rvg,2,river valley grove,2 rvg,2 river valley grove 2 rvg singapore 238405,238405,28124.7525263485,30980.3680763338,1.29644995684098,103.834439535286,2 rvg,condo
the arc at draycott,5,draycott drive,the arc at draycott,5 draycott drive the arc at draycott singapore 259420,259420,27730.4187525054,32391.7688486073,1.30921416741461,103.830896261502,the arc at draycott,condo
city edge,18,moulmein rise,city edge,18 moulmein rise city edge singapore 308133,308133,29480.9876584671,33532.8080903757,1.31953328897071,103.84662602278,city edge,condo
signature crest,9,gray lane,signature crest,9 gray lane signature crest singapore 438951,438951,34657.5303161414,32728.5337043889,1.31225903171368,103.893139764788,signature crest,condo
the silverton,16,haig lane,the silverton,16 haig lane the silverton singapore 438818,438818,35342.8685669946,32349.5411067531,1.30883140284246,103.899297773899,the silverton,condo
hillview 128,124,hillview avenue,hillview 128,124 hillview avenue hillview 128 singapore 669611,669611,19970.1508506741,37684.6126620937,1.35707968895277,103.76116513308,hillview avenue,condo
dorset mansions,101,dorset road,dorset mansions,101 dorset road dorset mansions singapore 219494,219494,29853.9378282465,32865.6991262008,1.31350017106513,103.849977133757,dorset mansions,condo
nanyang park,197,yio chu kang road,nanyang park,197 yio chu kang road nanyang park singapore 545644,545644,32553.5720156813,38567.4828317519,1.36506478537527,103.874235543221,nanyang park,condo
the tropic gardens,332,upper east coast road,the tropic gardens,332 upper east coast road the tropic gardens singapore 466456,466456,39661.0010364037,32904.5721463487,1.31384957032818,103.938098437733,the tropic gardens,condo
kembangan wave,117,jalan kembangan,kembangan wave,117 jalan kembangan kembangan wave singapore 410117,410117,36889.2861579889,33765.9224152118,1.32164023627263,103.913193476299,jalan kembangan,condo
geylang road,,geylang road,nil,geylang road,nil,33547.9022866841,32844.0778904601,1.31330407235279,103.883168652332,geylang road,condo
one leicester,1,leicester road,one leicester,1 leicester road one leicester singapore 358828,358828,31788.1548196869,34627.2346674874,1.32943069562467,103.867357251861,one leicester,condo
lakeside drive,,lakeside drive,nil,lakeside drive,nil,15406.8734520801,36091.0374270683,1.34266612648188,103.72016090709,lakeside drive,condo
valley park,483,river valley road,valley park,483 river valley road valley park singapore 248368,248368,27472.3751109196,30618.0722065549,1.29317347613803,103.828577644837,valley park,condo
cassia edge,343,guillemard road,cassia edge,343 guillemard road cassia edge singapore 399764,399764,33843.8147709416,32652.7956723999,1.3115742491255,103.885828118166,cassia edge,condo
10a jalan ampas singapore 329511,10a,jalan ampas,nil,10a jalan ampas singapore 329511,329511,30063.1963811796,34228.7013622429,1.32582666764496,103.851857517192,jalan ampas,condo
suites de laurel,2,jalan anak bukit,suites de laurel,2 jalan anak bukit suites de laurel singapore 588997,588997,22080.3954784041,35704.382917434,1.33917169739151,103.780127443358,suites de laurel,condo
amber park,14,amber gardens,amber park,14 amber gardens amber park singapore 439960,439960,35411.2905851752,31425.3543826211,1.30047337304007,103.899912358551,amber park,condo
rv residences,469,river valley road,rv residences,469 river valley road rv residences singapore 248354,248354,27457.0881144041,30747.1765984073,1.29434105060757,103.828440282424,rv residences,condo
park infinia at wee nam,4,lincoln road,park infinia at wee nam,4 lincoln road park infinia at wee nam singapore 308343,308343,29161.2493304955,32955.6318437085,1.31431352471873,103.843752986119,park infinia at wee nam,condo
sixth avenue centre,805,bukit timah road,sixth avenue centre,805 bukit timah road sixth avenue centre singapore 279883,279883,23735.820851854,34848.3693481199,1.33143049540259,103.79500253329,sixth avenue centre,condo
gold coast condominium,360,pasir panjang road,gold coast condominium,360 pasir panjang road gold coast condominium singapore 118699,118699,21465.7954123821,30327.716190828,1.29054692058657,103.774606037683,gold coast condominium,condo
11 jalan bunga rampai singapore 538404,11,jalan bunga rampai,nil,11 jalan bunga rampai singapore 538404,538404,33598.6882032836,35752.1515163891,1.33960376137129,103.883626101948,jalan bunga rampai,condo
cavenagh road,,cavenagh road,nil,cavenagh road,nil,28982.5044461648,32268.6550906781,1.30809356579841,103.84213845629,cavenagh road,condo
sunny parc,128,lorong k telok kurau,sunny parc,128 lorong k telok kurau sunny parc singapore 425767,425767,37063.2338692416,32851.4526521601,1.31337005210124,103.914756218153,sunny parc,condo
one marina boulevard,1,marina boulevard,one marina boulevard,1 marina boulevard one marina boulevard singapore 018989,018989,30147.5492866933,29410.7863671333,1.28225513828498,103.852615142196,marina boulevard,condo
heritage residences,101,lorong l telok kurau,heritage residences,101 lorong l telok kurau heritage residences singapore 425537,425537,36862.8341497825,32761.6104359236,1.31255760997324,103.912955503031,heritage residences,condo
compass heights,11,sengkang square,compass heights,11 sengkang square compass heights singapore 545076,545076,34999.513584191,41548.5843269397,1.39202430708237,103.896214703952,compass heights,condo
the citrine,18,jalan datoh,the citrine,18 jalan datoh the citrine singapore 329415,329415,29113.486936477,34395.4980807342,1.32733516756517,103.843323869087,the citrine,condo
central 24-hr clinic (bedok),219,bedok central,central 24-hr clinic (bedok),219 bedok central central 24-hr clinic (bedok) singapore 460219,460219,39087.7662865771,34133.5908521004,1.32496457628748,103.932948087606,bedok central,condo
32 jalan mutiara singapore 249207,32,jalan mutiara,nil,32 jalan mutiara singapore 249207,249207,27415.270049708,31005.6032813266,1.29667816988467,103.828064524297,jalan mutiara,condo
changi rise condominium,24,simei rise,changi rise condominium,24 simei rise changi rise condominium singapore 528811,528811,42160.9788255244,36748.3705329951,1.34861038548704,103.960563721864,simei rise,condo
d'ecosia,29,still road south,d'ecosia,29 still road south d'ecosia singapore 423937,423937,36553.3309707725,32044.3511759583,1.30607106358035,103.910174268952,d'ecosia,condo
cherry gardens,63,lorong lew lian,cherry gardens,63 lorong lew lian cherry gardens singapore 536492,536492,33039.4412270393,36859.9076292403,1.34962200959648,103.878601122941,cherry gardens,condo
spottiswoode park road,,spottiswoode park road,nil,spottiswoode park road,nil,28514.2342845335,28433.9242457647,1.27342074069167,103.837938952301,spottiswoode park,condo
rio vista,10,upper serangoon view,rio vista,10 upper serangoon view rio vista singapore 534198,534198,35647.7876296034,39450.5605792422,1.37305038178647,103.902039407109,rio vista,condo
the shelford,1,shelford road,the shelford,1 shelford road the shelford singapore 288533,288533,25626.0715992581,34166.717737684,1.32526608685309,103.811987550207,the shelford,condo
dorsett residences,331,new bridge road,dorsett residences,331 new bridge road dorsett residences singapore 088764,088764,28783.5054082591,29166.4261242859,1.28004529331829,103.840358673254,dorsett residences,condo
tanglin hill meadows,1,tanglin hill,tanglin hill meadows,1 tanglin hill tanglin hill meadows singapore 248018,248018,26242.9878319306,31479.8909935374,1.30096741677905,103.817531028185,tanglin hill,condo
tresalveo,7,marymount terrace,tresalveo,7 marymount terrace tresalveo singapore 573963,573963,28835.1016661674,37016.9434072711,1.35104259761342,103.840822496926,tresalveo,condo
the linear,882,upper bukit timah road,the linear,882 upper bukit timah road the linear singapore 678182,678182,20157.3185881032,39709.7801017277,1.37539461653531,103.762846422961,the linear,condo
the windsor,5a,ontario avenue,the windsor,5a ontario avenue the windsor singapore 576194,576194,27399.9575675493,37612.9048121367,1.3564322659845,103.827926805238,the windsor,condo
blossoms @ woodleigh,12,woodleigh close,blossoms @ woodleigh,12 woodleigh close blossoms @ woodleigh singapore 357907,357907,31978.7305504745,35392.3613513745,1.33635020452029,103.869069780066,blossoms @ woodleigh,condo
stillz residence,21,lorong 108 changi,stillz residence,21 lorong 108 changi stillz residence singapore 426411,426411,35971.7453750419,33172.8841711413,1.31627726515293,103.904948742515,stillz residence,condo
tiong bahru estate,67,tiong bahru road,tiong bahru estate,67 tiong bahru road tiong bahru estate singapore 168722,168722,28051.9950129846,29705.5130494405,1.28492061604382,103.833785775152,tiong bahru estate,condo
robertson 100,100,robertson quay,robertson 100,100 robertson quay robertson 100 singapore 238250,238250,28501.1191039858,30390.1346149743,1.29111208915593,103.837821344301,robertson 100,condo
gerald gardens,99,gerald drive,gerald gardens,99 gerald drive gerald gardens singapore 799027,799027,32746.3684781659,41055.6581049096,1.3875669161691,103.875968350817,gerald drive,condo
d' casita,38,lorong marzuki,d' casita,38 lorong marzuki d' casita singapore 417104,417104,36461.850166969,33794.1932265591,1.32189602855264,103.909352749897,d' casita,condo
estilo,73,wilkie road,estilo,73 wilkie road estilo singapore 228073,228073,29559.962488099,31663.7512878496,1.30263019519208,103.847335558738,estilo,condo
wimborne road pumping station,,wimborne road,wimborne road pumping station,wimborne road wimborne road pumping station,nil,33902.4991550082,31975.8628708925,1.30545229899916,103.886355297419,d'saville,condo
the residences at w singapore sentosa cove,13,ocean way,the residences at w singapore sentosa cove,13 ocean way the residences at w singapore sentosa cove singapore 098373,098373,29084.6357365418,25458.6587759592,1.24651353240058,103.843064318949,the residences at w singapore sentosa cove,condo
waterbank at dakota,86,dakota crescent,waterbank at dakota,86 dakota crescent waterbank at dakota singapore 399949,399949,34193.8026796971,32128.0349774249,1.3068284323365,103.888972825423,waterbank at dakota,condo
kampong java road,,kampong java road,nil,kampong java road,nil,29131.5836627152,32860.9774294189,1.31345702010153,103.843482486581,kampong java road,condo
casa jervois,99,jervois road,casa jervois,99 jervois road casa jervois singapore 249055,249055,26405.2806441775,30790.8007536922,1.29473553604742,103.818989337771,casa jervois,condo
the promenade@pelikat,183,jalan pelikat,the promenade@pelikat,183 jalan pelikat the promenade@pelikat singapore 537643,537643,34069.5234887367,37488.7720274143,1.35530904178242,103.887857183262,the promenade@pelikat,condo
tanjong ria condominium,121,tanjong rhu road,tanjong ria condominium,121 tanjong rhu road tanjong ria condominium singapore 436914,436914,32561.3772206428,30999.6538367141,1.29662403708868,103.874304548932,tanjong ria condominium,condo
malvern springs,375,onan road,malvern springs,375 onan road malvern springs singapore 424776,424776,35856.337215553,32049.8557417449,1.30612102972864,103.903911457935,malvern springs,condo
esso geylang lorong 38,638,geylang road,esso geylang lorong 38,638 geylang road esso geylang lorong 38 singapore 389569,389569,34208.5560819283,32946.3376052883,1.31422886617289,103.889105555372,lorong 38 geylang,condo
the seafront on meyer,59a,meyer road,the seafront on meyer,59a meyer road the seafront on meyer singapore 437979,437979,34085.3327290444,31015.7911819648,1.29676971721771,103.887997955295,the seafront on meyer,condo
tanah merah kechil link,,tanah merah kechil link,nil,tanah merah kechil link,nil,40459.5882925638,34491.8356964774,1.32820429821077,103.945275834429,tanah merah kechil link,condo
eight @ east coast,8d,east coast avenue,eight @ east coast,8d east coast avenue eight @ east coast singapore 459264,459264,37930.5647890074,32326.219564762,1.30861976742054,103.922549441249,east coast avenue,condo
the aston,2,kay poh road,the aston,2 kay poh road the aston singapore 248973,248973,27613.9570553079,30923.5882748738,1.29593645811863,103.829849815157,the aston,condo
highgate,64,toh tuck road,highgate,64 toh tuck road highgate singapore 596727,596727,20486.4023073874,35970.6016387399,1.34157892837376,103.765804415239,highgate,condo
naturalis,2,lorong m telok kurau,naturalis,2 lorong m telok kurau naturalis singapore 425279,425279,36366.5901329862,32447.1965186987,1.30971430274572,103.908496424321,naturalis,condo
fowlie road,,fowlie road,nil,fowlie road,nil,35705.8659748716,32091.1662485775,1.30649466682442,103.902559416694,fowlie road,condo
mohamed sultan road,,mohamed sultan road,nil,mohamed sultan road,nil,28835.6641667544,30511.6648802482,1.29221386678277,103.840829416295,mohamed sultan road,condo
hillsta,42,phoenix road,hillsta,42 phoenix road hillsta singapore 668189,668189,19468.8122479301,39797.488879133,1.37618763070578,103.75665967456,hillsta,condo
farrer road mrt station (cc20),71,farrer road,farrer road mrt station (cc20),71 farrer road farrer road mrt station (cc20) singapore 268857,268857,25113.2011973979,33301.2602245007,1.31743915158967,103.807379214161,regentville,condo
sunshine regency,9,rambai road,sunshine regency,9 rambai road sunshine regency singapore 424352,424352,36015.0833465401,32635.3856492378,1.31141631082382,103.905338016729,sunshine regency,condo
the boutiq,145,killiney road,the boutiq,145 killiney road the boutiq singapore 239565,239565,28585.9663764779,30998.143131379,1.29661070295127,103.838583743882,the boutiq,condo
bella casita,7,ipoh lane,bella casita,7 ipoh lane bella casita singapore 438610,438610,34840.6050352044,32682.4486409556,1.31184221477958,103.894784770422,bella casita,condo
cavan road,,cavan road,nil,cavan road,nil,31139.7139976849,32580.5376564376,1.31092116730954,103.861530443441,cavan road,condo
hillview building,48,hillview terrace,hillview building,48 hillview terrace hillview building singapore 669269,669269,19594.2381717209,37234.2806666661,1.35300694648761,103.757787439927,hillview terrace,condo
centrina,11,everitt road north,centrina,11 everitt road north centrina singapore 428524,428524,35608.2543436578,33152.4693847001,1.31609273339964,103.901682588357,centrina,condo
marine parade road,,marine parade road,nil,marine parade road,nil,37436.784153374,32199.7611180616,1.30747559245641,103.918109149044,marine parade road,condo
robin regalia,35,robin road,robin regalia,35 robin road robin regalia singapore 258210,258210,27447.8997836588,33220.4670457486,1.31670861764983,103.828357677349,robin regalia,condo
robin regalia,35,robin road,robin regalia,35 robin road robin regalia singapore 258210,258210,27447.8997836588,33220.4670457486,1.31670861764983,103.828357677349,regal 35,condo
carlyx green,41,carlisle road,carlyx green,41 carlisle road carlyx green singapore 219606,219606,29612.2911706762,32830.396275267,1.31318091815404,103.847805816417,carlyx green,condo
still 123,123,langsat road,still 123,123 langsat road still 123 singapore 426775,426775,36002.1487474497,33148.8914971482,1.31606027614435,103.905221925833,still 123,condo
23 lorong 39 geylang singapore 387874,23,lorong 39 geylang,nil,23 lorong 39 geylang singapore 387874,387874,34333.110802344,33147.6945799999,1.31604984125525,103.89022478259,lorong 39 geylang,condo
aspen heights,263,river valley road,aspen heights,263 river valley road aspen heights singapore 238309,238309,28749.278220932,30788.6325369459,1.2947159593345,103.840051167364,aspen heights,condo
race course 138,138,race course road,race course 138,138 race course road race course 138 singapore 218591,218591,30112.4142717309,32458.631884018,1.30981878209749,103.852299645522,race course 138,condo
ritz mansions,346,balestier road,ritz mansions,346 balestier road ritz mansions singapore 329776,329776,30146.3350562584,34131.7513759248,1.32494988058305,103.852604556459,ritz mansions,condo
kensington square,2,jalan lokam,kensington square,2 jalan lokam kensington square singapore 537846,537846,33495.067365231,36415.9789165743,1.34560719747232,103.882695128109,kensington square,condo
royalgreen,2d,anamalai avenue,royalgreen,2d anamalai avenue royalgreen singapore 279992,279992,23623.8649375169,34830.3795114607,1.33126778578604,103.793996549226,royalgreen,condo
rv residences,461,river valley road,rv residences,461 river valley road rv residences singapore 248346,248346,27457.0881144041,30747.1765681393,1.29434105033385,103.828440282424,primo residences,condo
316 hougang avenue 7 singapore 530316,316,hougang avenue 7,nil,316 hougang avenue 7 singapore 530316,530316,35065.828950705,38557.7030343376,1.36497584742043,103.896809883055,hougang avenue 7,condo
ardor residence,181,haig road,ardor residence,181 haig road ardor residence singapore 438780,438780,35358.5601253817,32082.6287945975,1.30641753986541,103.899438706866,ardor residence,condo
sommerville park,79,sommerville estate road,sommerville park,79 sommerville estate road sommerville park singapore 258054,258054,25020.3778571757,32642.9550666064,1.31148566390691,103.806545212436,sommerville park,condo
leighwoods,37,mount sinai rise,leighwoods,37 mount sinai rise leighwoods singapore 276956,276956,21760.8899112269,33035.2416351028,1.31503287559433,103.777257042068,leighwoods,condo
one jervois,7,jervois close,one jervois,7 jervois close one jervois singapore 249103,249103,27051.7617655741,30548.4482164737,1.29254381129197,103.824798256849,one jervois,condo
8 napier,8,napier road,8 napier,8 napier road 8 napier singapore 258502,258502,26593.7437605057,32137.0302892365,1.30691037082483,103.820682699525,8 napier,condo
casa rosa,35,lorong ong lye,casa rosa,35 lorong ong lye casa rosa singapore 536443,536443,33155.4490860887,36485.4361300655,1.34623540384161,103.8796434622,casa rosa,condo
paya lebar residences,27,paya lebar road,paya lebar residences,27 paya lebar road paya lebar residences singapore 409042,409042,34472.3170429571,33310.4194979817,1.31752143815241,103.891475654733,paya lebar residences,condo
sunflower view,30,lorong 36 geylang,sunflower view,30 lorong 36 geylang sunflower view singapore 398162,398162,34121.9458809923,32797.6761005819,1.31288444198327,103.888327290325,sunflower view,condo
adam place apartment,5,adam road,adam place apartment,5 adam road adam place apartment singapore 289880,289880,25741.1467201216,34161.9411169048,1.32522289753749,103.813021562629,adam place,condo
102 lorong k telok kurau singapore 425735,102,lorong k telok kurau,nil,102 lorong k telok kurau singapore 425735,425735,36907.9931945214,32811.1633022502,1.31300573513567,103.913361293242,lorong k telok kurau,condo
the regency at tiong bahru,36,chay yan street,the regency at tiong bahru,36 chay yan street the regency at tiong bahru singapore 169905,169905,27693.2276334083,29367.1922982242,1.28186096037926,103.830562111061,the regency at tiong bahru,condo
chu lin road,,chu lin road,nil,chu lin road,nil,19701.3690782709,37758.1783302063,1.35774491626754,103.758749934018,chu lin road,condo
royce residences,8,lorong 6 geylang,royce residences,8 lorong 6 geylang royce residences singapore 399242,399242,32781.85611514,32621.0796986092,1.31128760423171,103.876285896427,royce residences,condo
43 woodsville close singapore 357783,43,woodsville close,nil,43 woodsville close singapore 357783,357783,31838.7236308875,34676.0025033895,1.32987172823927,103.86781164675,woodsville close,condo
surrey road,,surrey road,nil,surrey road,nil,29005.0917915136,33143.2556591252,1.31601025404321,103.842350128566,surrey road,condo
principal garden,95,prince charles crescent,principal garden,95 prince charles crescent principal garden singapore 159027,159027,26705.8972037043,30548.7763214167,1.29254676613378,103.8216905172,principal garden,condo
jurongville @ street 41,479,jurong west street 41,jurongville @ street 41,479 jurong west street 41 jurongville @ street 41 singapore 640479,640479,15889.8254240286,36592.6226576716,1.34720275740571,103.724501217493,jurong west street 41,condo
novena court,6d,jalan novena barat,novena court,6d jalan novena barat novena court singapore 308605,308605,28964.8360861,33894.5845918208,1.3228050883097,103.841988144064,novena court,condo
the springside,3,springside walk,the springside,3 springside walk the springside singapore 786608,786608,26653.2229212886,42886.0963199586,1.40412109704251,103.821216664817,springside walk,condo
tai thong crescent,,tai thong crescent,nil,tai thong crescent,nil,32040.279466027,34581.6080887301,1.32901649945606,103.869623660041,tai thong crescent,condo
mooi residences,139,holland road,mooi residences,139 holland road mooi residences singapore 278573,278573,24109.0257569831,32763.6745005362,1.31257730599051,103.79835625246,mooi residences,condo
oue twin peaks,33,leonie hill road,oue twin peaks,33 leonie hill road oue twin peaks singapore 239197,239197,28012.1294753822,31280.8931357451,1.29916779999053,103.83342756799,oue twin peaks,condo
beach road conservation area,26,liang seah street,beach road conservation area,26 liang seah street beach road conservation area singapore 189047,189047,30563.1251315102,31179.7916835845,1.29825336861688,103.856349395857,liang seah street,condo
balmoral park (road),,balmoral park (road),nil,balmoral park (road),nil,27468.7898126808,32982.9080601952,1.31455987673983,103.828545131098,balmoral park,condo
highland condominium,91a,highland road,highland condominium,91a highland road highland condominium singapore 549170,549170,33193.5868061082,37943.9176916312,1.35942538111065,103.879986404947,highland condominium,condo
amber skye,8,amber road,amber skye,8 amber road amber skye singapore 439853,439853,35211.1900344677,31332.0700307395,1.29962978981916,103.898114344383,amber skye,condo
the champagne,382,changi road,the champagne,382 changi road the champagne singapore 419833,419833,36608.1204404263,33368.7653951868,1.31804857228919,103.910666945522,the champagne,condo
avant residences,10,aljunied road,avant residences,10 aljunied road avant residences singapore 389799,389799,33458.1611586642,32869.6374751702,1.31353535987581,103.882362870576,avant residences,condo
lily tan mansion,1d,bristol road,lily tan mansion,1d bristol road lily tan mansion singapore 219841,219841,29840.2129018335,32847.1345005315,1.31333227997331,103.84985380736,gloria mansion,condo
mangis road,,mangis road,nil,mangis road,nil,35832.3993689385,32881.3651581829,1.3136409737288,103.903696527312,mangis road,condo
rosalia park,42,lorong ong lye,rosalia park,42 lorong ong lye rosalia park singapore 536412,536412,33045.7399036475,36811.032432802,1.34917999877806,103.878657712313,rosalia park,condo
tanah merah green,12,tanah merah kechil avenue,tanah merah green,12 tanah merah kechil avenue tanah merah green singapore 465580,465580,40459.338841673,34794.3910301607,1.33094007818141,103.945272654285,tanah merah kechil avenue,condo
grandlink square,511,guillemard road,grandlink square,511 guillemard road grandlink square singapore 399849,399849,34475.0918906331,32942.1896202639,1.3141912983094,103.891500511011,grandlink square,condo
east palm,1,palm road,east palm,1 palm road east palm singapore 456448,456448,38918.4844455505,32862.0900020897,1.31346564994475,103.93142655093,east palm,condo
pinewood gardens,21,balmoral park,pinewood gardens,21 balmoral park pinewood gardens singapore 259850,259850,27519.7918445645,33163.4576010965,1.31619304558069,103.829003665038,pinewood gardens,condo
bliss loft,25,kim keat close,bliss loft,25 kim keat close bliss loft singapore 328933,328933,30182.4729403267,33941.5158270076,1.32322945510697,103.852929261304,bliss loft,condo
jc court,150,joo chiat place,jc court,150 joo chiat place jc court singapore 427878,427878,35906.1522631552,32892.6198341344,1.31374267236126,103.904359283897,jc court,condo
ridge court,19,meyappa chettiar road,ridge court,19 meyappa chettiar road ridge court singapore 358459,358459,31798.9859149801,34764.6312156226,1.33067325977266,103.867454592316,ridge court,condo
14 lorong 17 geylang singapore 388545,14,lorong 17 geylang,nil,14 lorong 17 geylang singapore 388545,388545,33077.1186012952,32838.8012403268,1.31325655317781,103.87893900947,lorong 17 geylang,condo
fruition,3,mangis road,fruition,3 mangis road fruition singapore 424981,424981,35828.7131402139,32955.9922445919,1.31431580944403,103.9036634713,fruition,condo
callidora ville,19,lorong n telok kurau,callidora ville,19 lorong n telok kurau callidora ville singapore 425145,425145,36501.4317000797,32448.1861606948,1.30972321585123,103.90970804035,callidora ville,condo
telok kurau ria,50,lorong l telok kurau,telok kurau ria,50 lorong l telok kurau telok kurau ria singapore 425490,425490,36509.1038772529,32625.6396914292,1.31132803943669,103.909777027174,lorong l telok kurau,condo
the alcove,10,lorong 27 geylang,the alcove,10 lorong 27 geylang the alcove singapore 388199,388199,33642.06298065,32921.7432340477,1.31400655260741,103.884015328938,the alcove,condo
lentor hills road,,lentor hills road,nil,lentor hills road,nil,28183.6875127394,40635.9747291388,1.38377235597759,103.834969325119,lentor hills road,condo
farrer road mrt station (cc20),71,farrer road,farrer road mrt station (cc20),71 farrer road farrer road mrt station (cc20) singapore 268857,268857,25113.2011973979,33301.2602245007,1.31743915158967,103.807379214161,fairhaven,condo
the lincoln modern,20,lincoln road,the lincoln modern,20 lincoln road the lincoln modern singapore 308353,308353,29083.6664346308,33067.2680373341,1.31532312585557,103.843055868846,the lincoln modern,condo
the meyerise,95,meyer road,the meyerise,95 meyer road the meyerise singapore 437987,437987,34642.5378876431,31008.844800774,1.29670678283697,103.893004684126,the meyerise,condo
paradise palms,505,dunman road,paradise palms,505 dunman road paradise palms singapore 439198,439198,34900.221915313,32473.8146375995,1.30995539026609,103.89532041072,paradise palms,condo
bella vista,3,sommerville road,bella vista,3 sommerville road bella vista singapore 358227,358227,32118.6170640225,36252.5637372229,1.34412954924506,103.870326858057,bella vista,condo
1 jalan merlimau singapore 308693,1,jalan merlimau,nil,1 jalan merlimau singapore 308693,308693,28893.8803350031,33883.3211183809,1.3227032275952,103.84135056861,jalan merlimau,condo
42 lorong 32 geylang singapore 398302,42,lorong 32 geylang,nil,42 lorong 32 geylang singapore 398302,398302,33955.1689274944,32757.2783610206,1.31251913196043,103.886828709603,lorong 32 geylang,condo
keng lee road,,keng lee road,nil,keng lee road,nil,29145.3363457952,32887.4424667958,1.31369637031522,103.843607422065,keng lee road,condo
the gazania,17,how sun drive,the gazania,17 how sun drive the gazania singapore 538550,538550,33126.4218778284,36374.5570295155,1.34523265795055,103.879382616118,the gazania,condo
kim seng walk,,kim seng walk,nil,kim seng walk,nil,27781.5363674138,30792.6605504961,1.29475248854453,103.831355751391,kim seng walk,condo
grange heights,15,saint thomas walk,grange heights,15 saint thomas walk grange heights singapore 238143,238143,28193.3965904573,31137.5089750718,1.29787108350456,103.835056333202,grange heights,condo
the capri,78,stevens road,the capri,78 stevens road the capri singapore 257864,257864,27192.8032448441,33401.7315275092,1.31834790391547,103.826065500218,the capri,condo
west coast ferry road,,west coast ferry road,nil,west coast ferry road,nil,20367.2223018305,30487.3241781517,1.29199068816713,103.764733898781,west coast road,condo
horizon towers,15,leonie hill road,horizon towers,15 leonie hill road horizon towers singapore 239194,239194,28006.5738172391,31183.9053749833,1.29829067681172,103.833377647901,leonie towers,condo
the lakegarden residences (u/c),80,yuan ching road,the lakegarden residences (u/c),80 yuan ching road the lakegarden residences (u/c) singapore 619613,619613,16011.3564636745,35330.4563327674,1.33578824239071,103.725593746553,the lakegarden residences,condo
the oliv,11c,balmoral road,the oliv,11c balmoral road the oliv singapore 259798,259798,27806.3444762602,33013.4345516786,1.31483629325537,103.831578486871,the oliv,condo
people's garden,11,lorong 1 realty park,people's garden,11 lorong 1 realty park people's garden singapore 536935,536935,34408.0659529334,38761.1639971323,1.36681602451064,103.890899478682,people's garden,condo
norfolk road,,norfolk road,nil,norfolk road,nil,29569.5449648267,33161.0868337698,1.31617069438253,103.847420665237,norfolk road,condo
regency lodge,17,shanghai road,regency lodge,17 shanghai road regency lodge singapore 248191,248191,27304.6366646513,30892.4700937625,1.29565503085263,103.827070437349,regency lodge,condo
hilbre28,68,hillside drive,hilbre28,68 hillside drive hilbre28 singapore 549018,549018,32640.7646331601,38096.2009724677,1.3608026678991,103.875018955207,hilbre28,condo
bukit batok street 31,,bukit batok street 31,nil,bukit batok street 31,nil,18623.5677633428,37800.1313028723,1.35812468915356,103.749065147205,bukit batok street 31,condo
swan lake,,nil,swan lake,swan lake,nil,26069.1517792707,32242.2938918378,1.30786230935446,103.815968985211,swan lake avenue,condo
the beacon edge,250,tembeling road,the beacon edge,250 tembeling road the beacon edge singapore 423728,423728,35972.7662233282,32161.9746189062,1.30713496275586,103.904957655411,the beacon edge,condo
de casalle,86a,lorong n telok kurau,de casalle,86a lorong n telok kurau de casalle singapore 425236,425236,37144.1410069531,32485.2072342578,1.31005783724773,103.91548310029,de casalle,condo
midtown residences,1189,upper serangoon road,midtown residences,1189 upper serangoon road midtown residences singapore 534785,534785,34877.838135995,39194.6139035691,1.37073588285709,103.895120805047,midtown residences,condo
mount sinai,25,mount sinai rise,mount sinai,25 mount sinai rise mount sinai singapore 276951,276951,22137.9014995974,33241.37813632,1.3168971747949,103.780644640392,mount sinai rise,condo
2 jalan ayer singapore 389141,2,jalan ayer,nil,2 jalan ayer singapore 389141,389141,32395.2297806703,32595.0272883251,1.31105205303883,103.872811866498,jalan ayer,condo
aquarius by the park,11,bedok reservoir view,aquarius by the park,11 bedok reservoir view aquarius by the park singapore 478931,478931,39450.7366178362,35602.1682996359,1.3382457147678,103.936210117248,aquarius by the park,condo
eastwood lodge,36,eastwood road,eastwood lodge,36 eastwood road eastwood lodge singapore 486137,486137,41755.8081752034,33662.2269363105,1.32070065096209,103.956921625801,eastwood lodge,condo
east village,430,upper changi road,east village,430 upper changi road east village singapore 487048,487048,40562.6769767581,34886.8074173424,1.3317758150305,103.946201241591,east village,condo
rivertrees residences,43,fernvale close,rivertrees residences,43 fernvale close rivertrees residences singapore 797471,797471,33322.3863085601,41740.4293153565,1.3937596396214,103.881144437617,rivertrees residences,condo
the sunnydale,23,serangoon avenue 3,the sunnydale,23 serangoon avenue 3 the sunnydale singapore 556125,556125,31806.762395625,36745.4874772783,1.34858741668021,103.867524716657,the sunnydale,condo
victory point,271,balestier road,victory point,271 balestier road victory point singapore 329722,329722,30144.7606670856,33852.263412701,1.32242229055037,103.852590390225,victory point,condo
the oceanfront @ sentosa cove,281,ocean drive,the oceanfront @ sentosa cove,281 ocean drive the oceanfront @ sentosa cove singapore 098527,098527,29023.0695074778,25152.6405617893,1.24374601223412,103.842511120506,the oceanfront @ sentosa cove,condo
woodsville mansions,12,woodsville close,woodsville mansions,12 woodsville close woodsville mansions singapore 357768,357768,31873.1789480085,34602.4092304576,1.32920617249191,103.868121237592,woodsville mansions,condo
maple woods,991,bukit timah road,maple woods,991 bukit timah road maple woods singapore 589630,589630,22463.1912179273,35138.860480126,1.33405738767157,103.783567190752,maple woods,condo
alex residences,28,alexandra view,alex residences,28 alexandra view alex residences singapore 158744,158744,26406.5516573498,30330.1968942378,1.29056999681587,103.819000781728,alex residences,condo
parc bleu,264,joo chiat place,parc bleu,264 joo chiat place parc bleu singapore 427946,427946,36291.3663843088,32929.0159343705,1.31407172413974,103.907820631927,parc bleu,condo
spazio @ kovan,767,upper serangoon road,spazio @ kovan,767 upper serangoon road spazio @ kovan singapore 534635,534635,33009.2384708272,37421.2898603957,1.35469895424795,103.878329825749,spazio @ kovan,condo
jaya tower,431,bukit timah road,jaya tower,431 bukit timah road jaya tower singapore 259738,259738,26960.4994966127,33596.246031018,1.32010701731526,103.82397812475,jaya tower,condo
casa riviera,19a,lim tua tow road,casa riviera,19a lim tua tow road casa riviera singapore 547801,547801,32718.5504455874,37444.051142009,1.35490484651228,103.875717809943,casa riviera,condo
moda,42,east coast road,moda,42 east coast road moda singapore 428762,428762,35759.4606896322,31831.2344236765,1.30414392147877,103.903040922862,moda,condo
espira spring,59,lorong g telok kurau,espira spring,59 lorong g telok kurau espira spring singapore 426244,426244,36583.419949634,33299.8066045828,1.31742494084104,103.910444979932,espira spring,condo
tanah merah kechil road south,,tanah merah kechil road south,nil,tanah merah kechil road south,nil,40609.7586850468,33792.6349404086,1.32188081945719,103.946623660377,tanah merah kechil road south,condo
west shore residences,248,pasir panjang road,west shore residences,248 pasir panjang road west shore residences singapore 118608,118608,22583.9630154697,29300.9436120782,1.2812613665939,103.784653411147,residence 118,condo
the morning glory,24,sirat road,the morning glory,24 sirat road the morning glory singapore 545782,545782,32826.6997372201,37650.071565507,1.35676800402302,103.876689634317,the morning glory,condo
global ville,20,jalan raja udang,global ville,20 jalan raja udang global ville singapore 329192,329192,29033.3459117012,34415.5693255607,1.32751668761838,103.842603758766,global ville,condo
suites @ kovan,981,upper serangoon road,suites @ kovan,981 upper serangoon road suites @ kovan singapore 534729,534729,33955.7974119084,38239.6204558779,1.3620994674031,103.886835430404,suites @ kovan,condo
oxley edge,308,river valley road,oxley edge,308 river valley road oxley edge singapore 238349,238349,28923.3288130611,30889.816469362,1.29563102657533,103.841615089993,oxley edge,condo
riverbay,23,mar thoma road,riverbay,23 mar thoma road riverbay singapore 328704,328704,31252.1037733005,34467.6268372722,1.32798732117053,103.862540519298,riverbay,condo
canninghill piers (u/c),1,clarke quay,canninghill piers (u/c),1 clarke quay canninghill piers (u/c) singapore 179882,179882,29263.5196111146,30438.9134986904,1.29155320677629,103.844671834054,canninghill piers,condo
the arizon,538,geylang road,the arizon,538 geylang road the arizon singapore 389493,389493,33928.4739884511,32889.9113641474,1.31371862266175,103.886588867863,the arizon,condo
dairy farm road,,dairy farm road,nil,dairy farm road,nil,21348.1659366985,38533.7020224107,1.36475888333025,103.773547196813,dairy farm road,condo
nassim road,,nassim road,nil,nassim road,nil,26727.2746936362,32662.5485010408,1.31166297790982,103.821882516747,nassim road,condo
versailles,133,hemmant road,versailles,133 hemmant road versailles singapore 438686,438686,34366.409458735,32664.2157523893,1.31167742470116,103.890523888329,versailles,condo
25 hillside drive singapore 548944,25,hillside drive,nil,25 hillside drive singapore 548944,548944,32864.9913094006,37748.4095507544,1.35765733124624,103.877033725045,hillside drive,condo
bukit batok east avenue 5,,bukit batok east avenue 5,nil,bukit batok east avenue 5,nil,19275.1749838669,37274.1150079105,1.35336633955725,103.754920517536,bukit batok east avenue 5,condo
still road south,,still road south,nil,still road south,nil,36576.9891485233,31853.1867902419,1.30434010161975,103.910387227881,still road south,condo
suites at bukit timah,68,jalan jurong kechil,suites at bukit timah,68 jalan jurong kechil suites at bukit timah singapore 596180,596180,21359.4319015201,35856.6370502003,1.34054847886549,103.773649129593,suites at bukit timah,condo
taipan grand,501,marine parade road,taipan grand,501 marine parade road taipan grand singapore 449303,449303,39150.1610411592,32648.0218362771,1.31152961287463,103.933508200344,taipan grand,condo
volari,12,balmoral road,volari,12 balmoral road volari singapore 259820,259820,27956.5480742026,33019.4036704786,1.31489027644596,103.832928141724,volari,condo
valley mansion,62,oxley road,valley mansion,62 oxley road valley mansion singapore 238647,238647,28753.1827000277,30966.2703997009,1.29632245359379,103.840086255046,valley mansion,condo
parc rosewood,99,rosewood drive,parc rosewood,99 rosewood drive parc rosewood singapore 737797,737797,22739.7439434314,45447.7459128704,1.42728727458399,103.786050332413,parc rosewood,condo
estique,3,rose lane,estique,3 rose lane estique singapore 437361,437361,34725.2456979742,32482.5519451182,1.31003444599099,103.893748167258,estique,condo
saint patrick's loft,43,saint patrick's road,saint patrick's loft,43 saint patrick's road saint patrick's loft singapore 424165,424165,36925.6020783363,32327.1161629763,1.30862818277128,103.9135193784,st patrick's loft,condo
delight court,16,lorong 33 geylang,delight court,16 lorong 33 geylang delight court singapore 387982,387982,34090.2828459051,33047.2465833407,1.31514147457982,103.888042831488,delight court,condo
villa martia,11,martia road,villa martia,11 martia road villa martia singapore 424808,424808,36689.5706765698,32110.2127951272,1.30666665433205,103.911398464222,villa martia,condo
ontario avenue,,ontario avenue,nil,ontario avenue,nil,27302.1796338251,37690.6710345338,1.35713586866266,103.827049193083,ontario avenue,condo
defence science & technology agency (depot road),1,depot road,defence science & technology agency (depot road),1 depot road defence science & technology agency (depot road) singapore 109679,109679,26092.3062419901,29102.049391862,1.27946304467549,103.816177229866,depot road,condo
sophia residence,15,sophia road,sophia residence,15 sophia road sophia residence singapore 228196,228196,29731.9241656,31465.6008730661,1.30083818355869,103.84888070239,sophia residence,condo
liv on wilkie,9,wilkie terrace,liv on wilkie,9 wilkie terrace liv on wilkie singapore 228025,228025,29727.4330627117,31683.324049253,1.30280719548036,103.848840359826,liv on wilkie,condo
goldhill towers,40,goldhill avenue,goldhill towers,40 goldhill avenue goldhill towers singapore 309023,309023,28021.5345854266,33654.5566962883,1.32063437606503,103.83351207863,goldhill towers,condo
waterfront waves,764,bedok reservoir road,waterfront waves,764 bedok reservoir road waterfront waves singapore 479247,479247,38777.173278545,35518.1047863141,1.33748572319326,103.930157734494,waterfront waves,condo
suffolk walk,,suffolk walk,nil,suffolk walk,nil,29245.8386343078,33059.9716519139,1.31525716426833,103.844513119763,suffolk walk,condo
the myst (u/c),800,upper bukit timah road,the myst (u/c),800 upper bukit timah road the myst (u/c) singapore 678139,678139,20301.5214674687,39500.1280650068,1.37349863800841,103.764142243891,the myst,condo
boon court,159,still road,boon court,159 still road boon court singapore 423994,423994,36026.7112162365,33085.4195050262,1.31548625190694,103.905442615417,boon court,condo
keppel bay vista pumping station,2,keppel bay vista,keppel bay vista pumping station,2 keppel bay vista keppel bay vista pumping station singapore 098382,098382,25648.5454863645,27361.7104893047,1.26372399980548,103.812189999971,keppel bay view,condo
three 11,311,upper thomson road,three 11,311 upper thomson road three 11 singapore 574409,574409,27490.0908407178,37637.4748781882,1.35665447059553,103.828736711218,thomson three,condo
riveria gardens,8,river valley grove,riveria gardens,8 river valley grove riveria gardens singapore 238406,238406,28152.6945063211,31072.3335613608,1.29728166021583,103.834690606647,riveria gardens,condo
kee seng street,,kee seng street,nil,kee seng street,nil,29019.4587764491,28574.1863742176,1.27468927785411,103.842478784985,kee seng street,condo
the tre ver,66,potong pasir avenue 1,the tre ver,66 potong pasir avenue 1 the tre ver singapore 358394,358394,31436.6875329595,35557.2518830542,1.33784148223452,103.864199228389,the tre ver,condo
the verte,118,lorong h telok kurau,the verte,118 lorong h telok kurau the verte singapore 426146,426146,36994.8016507505,33218.8901443332,1.31669304380828,103.9141414281,the verte,condo
fairlodge,108,holland road,fairlodge,108 holland road fairlodge singapore 278551,278551,24458.2446773443,32676.4017637055,1.31178808445845,103.801494166699,fairlodge,condo
stevens drive,,stevens drive,nil,stevens drive,nil,27303.3055259139,33270.8757751968,1.31716428418747,103.827058446439,stevens drive,condo
concourse skyline,296,beach road,concourse skyline,296 beach road concourse skyline singapore 199599,199599,31176.5237099193,31450.7688346133,1.30070393376469,103.861861081342,concourse skyline,condo
sallim lodge,20,sallim road,sallim lodge,20 sallim road sallim lodge singapore 387635,387635,33486.9576038169,34220.1945756879,1.3257493113403,103.882621861308,sallim lodge,condo
haig lodge,139,haig road,haig lodge,139 haig road haig lodge singapore 438768,438768,35273.32493841,32280.7951908782,1.30820970588592,103.89867287524,haig lodge,condo
glasgow residence,23,glasgow road,glasgow residence,23 glasgow road glasgow residence singapore 549338,549338,33040.7162355855,38217.458722489,1.36189921422964,103.87861280778,glasgow residence,condo
scotts square,6,scotts road,scotts square,6 scotts road scotts square singapore 228209,228209,27972.8591879476,32014.1846202537,1.30579942993543,103.833074706219,scotts square,condo
novena court,6d,jalan novena barat,novena court,6d jalan novena barat novena court singapore 308605,308605,28964.8360861,33894.5845918208,1.3228050883097,103.841988144064,jalan novena barat,condo
28 rc suites,28,race course lane,28 rc suites,28 race course lane 28 rc suites singapore 218746,218746,30185.015662834,32476.6572552901,1.3099817921347,103.852952005462,28 rc suites,condo
kingsgrove,1801,ang mo kio avenue 1,kingsgrove,1801 ang mo kio avenue 1 kingsgrove singapore 569979,569979,30837.7310203006,37524.568185946,1.35563325212442,103.858817438671,kingsgrove,condo
palm galleria,78a,lorong k telok kurau,palm galleria,78a lorong k telok kurau palm galleria singapore 425702,425702,36762.1417996902,32803.6568422876,1.31293789129591,103.91205074521,palm galleria,condo
rosyth residence,37,rosyth road,rosyth residence,37 rosyth road rosyth residence singapore 546200,546200,33095.6503862012,38327.9031747896,1.36289802477235,103.879106446851,rosyth residence,condo
top ten,136,emerald hill road,top ten,136 emerald hill road top ten singapore 229415,229415,28710.7833084362,31908.5640975889,1.3048442270371,103.839705299353,top ten,condo
vitra,170,tembeling road,vitra,170 tembeling road vitra singapore 423679,423679,35773.5973816952,32429.5572458282,1.30955493460419,103.903168096964,vitra,condo
bedok ria,17,bedok ria crescent,bedok ria,17 bedok ria crescent bedok ria singapore 489833,489833,41211.1240642332,34372.4726201613,1.32712408788142,103.952027670182,bedok ria crescent,condo
rambai road,,rambai road,nil,rambai road,nil,36015.170886352,32596.5812509697,1.31106508216983,103.90533900746,rambai road,condo
balmoral point,25,balmoral road,balmoral point,25 balmoral road balmoral point singapore 259807,259807,27985.6061860742,33197.2081887517,1.316498277754,103.833189243386,balmoral point,condo
peirce view,557,upper thomson road,peirce view,557 upper thomson road peirce view singapore 574418,574418,27428.1226225616,39307.4328489266,1.37175697361337,103.828179854072,peirce view,condo
coastal breeze residences,10,loyang besar close,coastal breeze residences,10 loyang besar close coastal breeze residences singapore 509050,509050,41818.578252784,40049.2587849274,1.37846253088292,103.957488575516,coastal breeze residences,condo
marshall road,,marshall road,nil,marshall road,nil,35578.3731029424,32081.824304266,1.3064102081429,103.901413831016,marshall road,condo
the calrose,519,yio chu kang road,the calrose,519 yio chu kang road the calrose singapore 787085,787085,28322.8513644887,40398.115488328,1.38162072114262,103.836219639652,the calrose,condo
farrer road mrt station (cc20),71,farrer road,farrer road mrt station (cc20),71 farrer road farrer road mrt station (cc20) singapore 268857,268857,25113.2011973979,33301.2602245007,1.31743915158967,103.807379214161,d'gallery,condo
one k greenlane,1k,green lane,one k greenlane,1k green lane one k greenlane singapore 438920,438920,34691.2046587467,32588.7412637342,1.31099479160291,103.893442315049,one k greenlane,condo
loft @ stevens,68,stevens road,loft @ stevens,68 stevens road loft @ stevens singapore 257856,257856,27210.4036838925,33345.5116534811,1.31783947169965,103.826223650676,loft @ stevens,condo
grand regalia,815,upper serangoon road,grand regalia,815 upper serangoon road grand regalia singapore 534676,534676,33316.4473064039,37683.7844089866,1.35707280748098,103.881090341686,grand regalia,condo
eco resource recovery complex,40,tuas west road,eco resource recovery complex,40 tuas west road eco resource recovery complex singapore 638389,638389,6041.53740365524,34311.375968596,1.3265665000526,103.636010217327,eco,condo
tanglin hill condominium,5,tanglin rise,tanglin hill condominium,5 tanglin rise tanglin hill condominium singapore 247987,247987,26252.0239147181,31583.8200504687,1.30190731505382,103.817612215665,tanglin hill condominium,condo
questa @ dunman,543,dunman road,questa @ dunman,543 dunman road questa @ dunman singapore 439219,439219,35042.5691856695,32461.3581515811,1.30984270610085,103.896599466454,questa @ dunman,condo
waringin park (road),,waringin park (road),nil,waringin park (road),nil,37481.7280729768,33849.1250803832,1.32239181574418,103.918516181243,waringin park,condo
one tree hill collection,12a,one tree hill,one tree hill collection,12a one tree hill one tree hill collection singapore 248714,248714,27156.6739871521,31501.4437653646,1.30116237075932,103.825740911936,one tree hill,condo
327 serangoon avenue 3 singapore 550327,327,serangoon avenue 3,nil,327 serangoon avenue 3 singapore 550327,550327,31916.9605876114,36967.9492576551,1.35059926733191,103.868514945025,serangoon avenue 3,condo
jc residence,3,joo chiat lane,jc residence,3 joo chiat lane jc residence singapore 428129,428129,35485.6722180089,32771.6481468268,1.31264875307626,103.900581034415,jc residence,condo
singapore botanic gardens (taman serasi food garden),1,cluny road,singapore botanic gardens (taman serasi food garden),1 cluny road singapore botanic gardens (taman serasi food garden) singapore 259569,259569,25995.6525186971,32620.0905711707,1.31127896443187,103.815308534846,taman serasi,condo
hemmant road,,hemmant road,nil,hemmant road,nil,34409.5030348501,32658.1228827794,1.31162366725443,103.89091188007,hemmant road,condo
sommerville estate road,,sommerville estate road,nil,sommerville estate road,nil,25001.5313911764,32527.4428003877,1.31044101002298,103.806375878889,sommerville road,condo
lucky villas,6d,lucky heights,lucky villas,6d lucky heights lucky villas singapore 467555,467555,39906.913149043,33108.0846857894,1.315689968434,103.940308155405,lucky heights,condo
19 lorong 26 geylang singapore 398490,19,lorong 26 geylang,nil,19 lorong 26 geylang singapore 398490,398490,33758.6969026746,32695.5414810646,1.31196084300439,103.885063300564,lorong 26 geylang,condo
evelyn mansions,20,evelyn road,evelyn mansions,20 evelyn road evelyn mansions singapore 309309,309309,28643.8483260283,33196.8078038637,1.31649465009912,103.839103883927,evelyn mansions,condo
baywind residences,95,lorong n telok kurau,baywind residences,95 lorong n telok kurau baywind residences singapore 425248,425248,37171.9835565994,32583.5111377556,1.31094685388401,103.915733307919,baywind residences,condo
leonie hill residences,1,leonie hill road,leonie hill residences,1 leonie hill road leonie hill residences singapore 239191,239191,27989.241582795,31077.4135581404,1.29732760228353,103.83322191012,leonie hill residences,condo
regis mansions,15,jalan rajawali,regis mansions,15 jalan rajawali regis mansions singapore 598433,598433,20758.0615474284,36122.2297993358,1.34295026529862,103.768245398461,regis mansions,condo
vacanza @ east,36,lengkong tujoh,vacanza @ east,36 lengkong tujoh vacanza @ east singapore 417391,417391,37000.8554896377,34581.9260989092,1.32901984483655,103.914196223923,vacanza @ east,condo
telok blangah road,,telok blangah road,nil,telok blangah road,nil,25890.2950913928,27960.0019944551,1.26913483180154,103.814362034784,telok blangah road,condo
starville,66,lengkong tiga,starville,66 lengkong tiga starville singapore 417471,417471,36763.9565771902,34498.4333792236,1.32826483616522,103.912067534158,starville,condo
esso ang mo kio avenue 8,2225,ang mo kio avenue 8,esso ang mo kio avenue 8,2225 ang mo kio avenue 8 esso ang mo kio avenue 8 singapore 569810,569810,30139.113448292,38291.9079437293,1.36257285737839,103.852539960282,ang mo kio avenue 2,condo
perumal road,,perumal road,nil,perumal road,nil,30465.4729282865,32789.5060269363,1.31281106831755,103.855472072451,perumal road,condo
east mews,853,mountbatten road,east mews,853 mountbatten road east mews singapore 437838,437838,35339.4821547084,31726.5178543441,1.30319700466564,103.899267198543,east mews,condo
angullia park residences @ orchard,5,cuscaden walk,angullia park residences @ orchard,5 cuscaden walk angullia park residences @ orchard singapore 249696,249696,27546.3314180467,31772.522071993,1.30361391565827,103.829242156982,angullia park residences @ orchard,condo
kassia,33,flora drive,kassia,33 flora drive kassia singapore 509905,509905,42710.4934040168,37686.7321171183,1.35709630624257,103.965501900375,kassia,condo
the santorini,23,tampines street 86,the santorini,23 tampines street 86 the santorini singapore 528568,528568,38520.2757946989,37099.0894740932,1.35178365804951,103.927849913591,the santorini,condo
butterworth lane,,butterworth lane,nil,butterworth lane,nil,34887.1403954304,32750.7891928582,1.31246025168489,103.895202928548,butterworth lane,condo
jalan kuala,,jalan kuala,nil,jalan kuala,nil,28237.3808439439,30871.7074525179,1.29546726776452,103.835451549198,jalan kuala,condo
1 guillemard crescent singapore 399913,1,guillemard crescent,nil,1 guillemard crescent singapore 399913,399913,33199.5131865162,32416.1616350785,1.30943433053408,103.880038714473,guillemard crescent,condo
marne road,,marne road,nil,marne road,nil,30648.0374196311,32777.5743607609,1.31270314378783,103.857112506162,marne road,condo
mccallum street,,mccallum street,nil,mccallum street,nil,29674.970285293,29057.6483255662,1.2790614899662,103.848368853255,mccallum street,condo
leicester suites,10,leicester road,leicester suites,10 leicester road leicester suites singapore 358844,358844,31758.7689055512,34734.9217064735,1.33040458254512,103.867093216382,leicester suites,condo
nim road,,nim road,nil,nim road,nil,31282.8395694184,40404.9863136516,1.38167856743236,103.862815590225,nim road,condo
dynasty lodge,267a,sixth avenue,dynasty lodge,267a sixth avenue dynasty lodge singapore 276560,276560,23445.1992951063,34004.208388282,1.32379616221166,103.792391261313,dynasty lodge,condo
penang service apartments,16,lorong 34 geylang,penang service apartments,16 lorong 34 geylang penang service apartments singapore 398213,398213,34040.7156930901,32850.739023909,1.31336434016643,103.887597407486,penang service apartments,condo
guilin mansions,8,lorong 37 geylang,guilin mansions,8 lorong 37 geylang guilin mansions singapore 387906,387906,34303.5888033528,33118.7158005144,1.31578777361004,103.889959506676,guilin mansions,condo
hillside mansions,24,hillside drive,hillside mansions,24 hillside drive hillside mansions singapore 548943,548943,32874.5379525376,37816.7531748563,1.35827540489293,103.877119519016,hillside mansions,condo
tay lian teck road,,tay lian teck road,nil,tay lian teck road,nil,38718.1629226423,32782.0884452226,1.31274219909117,103.929626538226,tay lian teck road,condo
the lucent,101,lorong n telok kurau,the lucent,101 lorong n telok kurau the lucent singapore 425253,425253,37215.3584550377,32605.4220706336,1.31114499548611,103.916123058693,the lucent,condo
tanglin halt road,,tanglin halt road,nil,tanglin halt road,nil,23988.4998868089,31376.4286991842,1.30003153088911,103.797273446935,tanglin road,condo
centros,20,biopolis way,centros,20 biopolis way centros singapore 138668,138668,23394.1961080711,31788.3433892261,1.30375665890104,103.791933300366,parc centros,condo
green court,500,geylang road,green court,500 geylang road green court singapore 389458,389458,33775.4105200674,32842.9581544064,1.31329402369768,103.885213508063,green court,condo
cambridge road,,cambridge road,nil,cambridge road,nil,29683.509294177,33013.0540794199,1.31483389413517,103.848446660151,cambridge road,condo
sarhad ville,57,lorong sarhad,sarhad ville,57 lorong sarhad sarhad ville singapore 119167,119167,23015.8539996734,29220.8940874171,1.28053749822744,103.788534128918,lorong sarhad,condo
the berth by the cove,212,ocean drive,the berth by the cove,212 ocean drive the berth by the cove singapore 098624,098624,29411.2093016692,25773.3715895228,1.24935967284368,103.845998682514,the berth by the cove,condo
martin edge,50,martin road,martin edge,50 martin road martin edge singapore 239071,239071,28470.8332621576,30525.426055111,1.29233561786734,103.837549215345,martin edge,condo
straits residences,156,joo chiat place,straits residences,156 joo chiat place straits residences singapore 427884,427884,35923.7066343315,32871.9554276299,1.31355578639069,103.904517013271,straits residences,condo
sanctuary green,189,tanjong rhu road,sanctuary green,189 tanjong rhu road sanctuary green singapore 436926,436926,32232.9942051806,30986.7954524085,1.29650779673362,103.871353882607,sanctuary green,condo
flora drive,,flora drive,nil,flora drive,nil,42697.7194275493,37618.0248033166,1.356478425661,103.965385495032,flora drive,condo
parbury hill condominium,36,parbury avenue,parbury hill condominium,36 parbury avenue parbury hill condominium singapore 467303,467303,40218.8087397544,33385.7739740815,1.31820116513166,103.943110799914,parbury hill condominium,condo
wh building,11,kranji crescent,wh building,11 kranji crescent wh building singapore 728656,728656,18869.0246369746,46114.2142854389,1.43331358298178,103.751268158788,crescent building,condo
summerhill,54,hume avenue,summerhill,54 hume avenue summerhill singapore 596231,596231,20487.1551932152,38013.7936929464,1.36005681782249,103.76581067031,summerhill,condo
nava grove (u/c),44,pine grove,nava grove (u/c),44 pine grove nava grove (u/c) singapore 597777,597777,21521.1522856588,33552.5341288485,1.31971103411894,103.775102771247,nava grove,condo
kartar apartments,43a,thomson road,kartar apartments,43a thomson road kartar apartments singapore 307583,307583,29282.6007901942,33022.96009803,1.31492241285227,103.844843392551,residential apartments,condo
serenity park,157e,tamarind road,serenity park,157e tamarind road serenity park singapore 806109,806109,30910.4553599553,41358.3141514473,1.39030426993482,103.859471290687,serenity park,condo
essex road,,essex road,nil,essex road,nil,29283.309769342,33265.2481512792,1.31711358017871,103.844849772447,essex road,condo
cairnhill plaza,55,cairnhill road,cairnhill plaza,55 cairnhill road cairnhill plaza singapore 229666,229666,28392.2721353276,32130.9336211532,1.30685526429939,103.836843330425,cairnhill plaza,condo
the botanic on lloyd,21,lloyd road,the botanic on lloyd,21 lloyd road the botanic on lloyd singapore 239124,239124,28725.8516793065,31029.2224483993,1.29689177042354,103.839840675332,the botanic on lloyd,condo
duo residences,5,fraser street,duo residences,5 fraser street duo residences singapore 189354,189354,30731.1894126236,31280.3711946346,1.2991629599519,103.857859536675,duo residences,condo
champions bliss,561,champions way,champions bliss,561 champions way champions bliss singapore 730561,730561,23393.1672085011,45427.9436293468,1.42710830386529,103.791921944436,champions way,condo
